[
  {
    "name": "Cap Hill Community Fridge",
    "address": "1336 E 17th Ave",
    "city": "Denver",
    "state": "CO",
    "zipCode": "80218",
    "coordinates": {
      "lat": 39.743,
      "lng": -104.972
    },
    "hours": "24/7 Access",
    "phone": null,
    "description": "Community fridge at The Rox. Take what you need, give what you can.",
    "id": "community-fridge-1",
    "type": "community_fridge"
  },
  {
    "name": "Westwood Community Fridge",
    "address": "1000 S Lowell Blvd",
    "city": "Denver",
    "state": "CO",
    "zipCode": "80219",
    "coordinates": {
      "lat": 39.714,
      "lng": -105.0341
    },
    "hours": "24/7 Access",
    "phone": null,
    "description": "Community fridge serving Westwood neighborhood.",
    "id": "community-fridge-2",
    "type": "community_fridge"
  },
  {
    "name": "LA Community Fridges - Echo Park",
    "address": "1818 Sunset Blvd",
    "city": "Los Angeles",
    "state": "CA",
    "zipCode": "90026",
    "coordinates": {
      "lat": 34.0777,
      "lng": -118.2616
    },
    "hours": "24/7 Access",
    "phone": null,
    "description": "Part of LA Community Fridges network. Free fresh food for anyone in need.",
    "id": "community-fridge-3",
    "type": "community_fridge"
  },
  {
    "name": "LA Community Fridges - Silver Lake",
    "address": "2927 Sunset Blvd",
    "city": "Los Angeles",
    "state": "CA",
    "zipCode": "90026",
    "coordinates": {
      "lat": 34.0769,
      "lng": -118.277
    },
    "hours": "24/7 Access",
    "phone": null,
    "description": "Community fridge at Stories Books. Open 24/7.",
    "id": "community-fridge-4",
    "type": "community_fridge"
  },
  {
    "name": "LA Community Fridges - Highland Park",
    "address": "5610 N Figueroa St",
    "city": "Los Angeles",
    "state": "CA",
    "zipCode": "90042",
    "coordinates": {
      "lat": 34.1185,
      "lng": -118.1872
    },
    "hours": "24/7 Access",
    "phone": null,
    "description": "Community fridge in Highland Park neighborhood.",
    "id": "community-fridge-5",
    "type": "community_fridge"
  },
  {
    "name": "LA Community Fridges - Boyle Heights",
    "address": "2637 E Cesar E Chavez Ave",
    "city": "Los Angeles",
    "state": "CA",
    "zipCode": "90033",
    "coordinates": {
      "lat": 34.0464,
      "lng": -118.2155
    },
    "hours": "24/7 Access",
    "phone": null,
    "description": "Community fridge serving Boyle Heights.",
    "id": "community-fridge-6",
    "type": "community_fridge"
  },
  {
    "name": "Freedge - Brooklyn Heights",
    "address": "26 Willow Pl",
    "city": "Brooklyn",
    "state": "NY",
    "zipCode": "11201",
    "coordinates": {
      "lat": 40.6945,
      "lng": -73.9935
    },
    "hours": "24/7 Access",
    "phone": null,
    "description": "Part of the Freedge network. Free food 24/7.",
    "id": "community-fridge-7",
    "type": "community_fridge"
  },
  {
    "name": "Freedge - Bed-Stuy",
    "address": "1091 Fulton St",
    "city": "Brooklyn",
    "state": "NY",
    "zipCode": "11238",
    "coordinates": {
      "lat": 40.6791,
      "lng": -73.9656
    },
    "hours": "24/7 Access",
    "phone": null,
    "description": "Community fridge in Bedford-Stuyvesant.",
    "id": "community-fridge-8",
    "type": "community_fridge"
  },
  {
    "name": "Washington Heights Community Fridge",
    "address": "572 W 177th St",
    "city": "New York",
    "state": "NY",
    "zipCode": "10033",
    "coordinates": {
      "lat": 40.8479,
      "lng": -73.9383
    },
    "hours": "24/7 Access",
    "phone": null,
    "description": "Community fridge in Washington Heights.",
    "id": "community-fridge-9",
    "type": "community_fridge"
  },
  {
    "name": "Chicago Community Fridge - Logan Square",
    "address": "2350 N Milwaukee Ave",
    "city": "Chicago",
    "state": "IL",
    "zipCode": "60647",
    "coordinates": {
      "lat": 41.9234,
      "lng": -87.6971
    },
    "hours": "24/7 Access",
    "phone": null,
    "description": "Community fridge at Logan Square bike shop.",
    "id": "community-fridge-10",
    "type": "community_fridge"
  },
  {
    "name": "Chicago Community Fridge - Pilsen",
    "address": "1801 S Ashland Ave",
    "city": "Chicago",
    "state": "IL",
    "zipCode": "60608",
    "coordinates": {
      "lat": 41.8572,
      "lng": -87.6661
    },
    "hours": "24/7 Access",
    "phone": null,
    "description": "Community fridge serving Pilsen neighborhood.",
    "id": "community-fridge-11",
    "type": "community_fridge"
  },
  {
    "name": "Beacon Hill Fridge Project",
    "address": "2524 16th Ave S",
    "city": "Seattle",
    "state": "WA",
    "zipCode": "98144",
    "coordinates": {
      "lat": 47.5784,
      "lng": -122.3125
    },
    "hours": "24/7 Access",
    "phone": null,
    "description": "Community fridge in Beacon Hill.",
    "id": "community-fridge-12",
    "type": "community_fridge"
  },
  {
    "name": "Portland Community Fridge - SE",
    "address": "3901 SE Hawthorne Blvd",
    "city": "Portland",
    "state": "OR",
    "zipCode": "97214",
    "coordinates": {
      "lat": 45.5121,
      "lng": -122.6214
    },
    "hours": "24/7 Access",
    "phone": null,
    "description": "Community fridge on Hawthorne.",
    "id": "community-fridge-13",
    "type": "community_fridge"
  },
  {
    "name": "Philly Community Fridge - West Philly",
    "address": "4812 Baltimore Ave",
    "city": "Philadelphia",
    "state": "PA",
    "zipCode": "19143",
    "coordinates": {
      "lat": 39.9468,
      "lng": -75.2194
    },
    "hours": "24/7 Access",
    "phone": null,
    "description": "Community fridge in West Philadelphia.",
    "id": "community-fridge-14",
    "type": "community_fridge"
  },
  {
    "name": "Philly Community Fridge - Kensington",
    "address": "2535 Frankford Ave",
    "city": "Philadelphia",
    "state": "PA",
    "zipCode": "19125",
    "coordinates": {
      "lat": 39.9827,
      "lng": -75.1338
    },
    "hours": "24/7 Access",
    "phone": null,
    "description": "Community fridge serving Kensington.",
    "id": "community-fridge-15",
    "type": "community_fridge"
  },
  {
    "name": "Jamaica Plain Community Fridge",
    "address": "659 Centre St",
    "city": "Jamaica Plain",
    "state": "MA",
    "zipCode": "02130",
    "coordinates": {
      "lat": 42.3101,
      "lng": -71.1106
    },
    "hours": "24/7 Access",
    "phone": null,
    "description": "Community fridge in Jamaica Plain.",
    "id": "community-fridge-16",
    "type": "community_fridge"
  },
  {
    "name": "Oakland Community Fridge",
    "address": "4037 Telegraph Ave",
    "city": "Oakland",
    "state": "CA",
    "zipCode": "94609",
    "coordinates": {
      "lat": 37.8259,
      "lng": -122.2623
    },
    "hours": "24/7 Access",
    "phone": null,
    "description": "Community fridge in Oakland.",
    "id": "community-fridge-17",
    "type": "community_fridge"
  },
  {
    "name": "Austin Community Fridge - East Austin",
    "address": "1100 E 6th St",
    "city": "Austin",
    "state": "TX",
    "zipCode": "78702",
    "coordinates": {
      "lat": 30.2666,
      "lng": -97.7292
    },
    "hours": "24/7 Access",
    "phone": null,
    "description": "Community fridge in East Austin.",
    "id": "community-fridge-18",
    "type": "community_fridge"
  },
  {
    "name": "Minneapolis Community Fridge - Cedar-Riverside",
    "address": "1910 Riverside Ave",
    "city": "Minneapolis",
    "state": "MN",
    "zipCode": "55454",
    "coordinates": {
      "lat": 44.9708,
      "lng": -93.2436
    },
    "hours": "24/7 Access",
    "phone": null,
    "description": "Community fridge in Cedar-Riverside.",
    "id": "community-fridge-19",
    "type": "community_fridge"
  },
  {
    "name": "Atlanta Community Fridge",
    "address": "575 Boulevard NE",
    "city": "Atlanta",
    "state": "GA",
    "zipCode": "30308",
    "coordinates": {
      "lat": 33.7692,
      "lng": -84.3691
    },
    "hours": "24/7 Access",
    "phone": null,
    "description": "Community fridge in Old Fourth Ward.",
    "id": "community-fridge-20",
    "type": "community_fridge"
  },
  {
    "name": "Nashville Community Fridge",
    "address": "1004 Fatherland St",
    "city": "Nashville",
    "state": "TN",
    "zipCode": "37206",
    "coordinates": {
      "lat": 36.1679,
      "lng": -86.7533
    },
    "hours": "24/7 Access",
    "phone": null,
    "description": "Community fridge in East Nashville.",
    "id": "community-fridge-21",
    "type": "community_fridge"
  }
]