[
  {
    "name": "HOME PAGE",
    "type": "food_box",
    "id": "little-pantry-2",
    "address": "Home Page, Town of Queensbury, Warren County, New York, 12804, United States",
    "city": "Town of Queensbury",
    "state": "New York",
    "coordinates": {
      "lat": 43.3630805,
      "lng": -73.7107889
    },
    "hours": "24/7",
    "phone": "",
    "description": "Little Free Pantry - Take what you need, leave what you can"
  },
  {
    "name": "here",
    "type": "food_box",
    "id": "little-pantry-3",
    "address": "Here, 26, Bushwick Avenue, Brooklyn, Kings County, City of New York, New York, 11207, United States",
    "city": "City of New York",
    "state": "New York",
    "coordinates": {
      "lat": 40.7139069,
      "lng": -73.9418565
    },
    "hours": "24/7",
    "phone": "",
    "description": "Little Free Pantry - Take what you need, leave what you can"
  },
  {
    "name": "Alaska Junction",
    "type": "food_box",
    "id": "little-pantry-7",
    "address": "Alaska Junction, West Seattle, Seattle, King County, Washington, 98116, United States",
    "city": "Seattle",
    "state": "Washington",
    "coordinates": {
      "lat": 47.5611534,
      "lng": -122.3867396
    },
    "hours": "24/7",
    "phone": "",
    "description": "Little Free Pantry - Take what you need, leave what you can"
  },
  {
    "name": "Gleneden Beach",
    "type": "food_box",
    "id": "little-pantry-10",
    "address": "Gleneden Beach, Lincoln County, Oregon, 97388, United States",
    "city": "",
    "state": "Oregon",
    "coordinates": {
      "lat": 44.8789911,
      "lng": -124.0346728
    },
    "hours": "24/7",
    "phone": "",
    "description": "Little Free Pantry - Take what you need, leave what you can"
  },
  {
    "name": "CR Pantry",
    "type": "food_box",
    "id": "little-pantry-25",
    "address": "Sister BJs Pantry, Oklahoma City, Oklahoma County, Oklahoma, United States",
    "city": "Oklahoma City",
    "state": "Oklahoma",
    "coordinates": {
      "lat": 35.472469,
      "lng": -97.5266698
    },
    "hours": "24/7",
    "phone": "",
    "description": "Little Free Pantry - Take what you need, leave what you can"
  },
  {
    "name": "Compass Christian Church",
    "type": "food_box",
    "id": "little-pantry-27",
    "address": "Compass Christian Church, Chandler, Maricopa County, Arizona, United States",
    "city": "Chandler",
    "state": "Arizona",
    "coordinates": {
      "lat": 33.278575,
      "lng": -111.8564546
    },
    "hours": "24/7",
    "phone": "",
    "description": "Little Free Pantry - Take what you need, leave what you can"
  },
  {
    "name": "St.James united Church of Christ",
    "type": "food_box",
    "id": "little-pantry-37",
    "address": "St. James United Church of Christ, South Ralph Street, Center City, Allentown, Lehigh County, Pennsylvania, 18102, United States",
    "city": "Allentown",
    "state": "Pennsylvania",
    "coordinates": {
      "lat": 40.5966226,
      "lng": -75.4870978
    },
    "hours": "24/7",
    "phone": "",
    "description": "Little Free Pantry - Take what you need, leave what you can"
  },
  {
    "name": "First Lutheran Church",
    "type": "food_box",
    "id": "little-pantry-41",
    "address": "First Lutheran Church, West Booher Lane, East Second Street Historic District, Dayton, Montgomery County, Ohio, 45402, United States",
    "city": "Dayton",
    "state": "Ohio",
    "coordinates": {
      "lat": 39.7615041,
      "lng": -84.195629
    },
    "hours": "24/7",
    "phone": "",
    "description": "Little Free Pantry - Take what you need, leave what you can"
  },
  {
    "name": "Community of Christ",
    "type": "food_box",
    "id": "little-pantry-58",
    "address": "Community of Christ, Eugene, Lane County, Oregon, United States",
    "city": "Eugene",
    "state": "Oregon",
    "coordinates": {
      "lat": 44.078598,
      "lng": -123.0801195
    },
    "hours": "24/7",
    "phone": "",
    "description": "Little Free Pantry - Take what you need, leave what you can"
  },
  {
    "name": "Little Pink Free Pantry - Church St",
    "type": "food_box",
    "id": "little-pantry-59",
    "address": "Church Street, Manhattan, New York County, City of New York, New York, 10013, United States",
    "city": "City of New York",
    "state": "New York",
    "coordinates": {
      "lat": 40.720299,
      "lng": -74.0036985
    },
    "hours": "24/7",
    "phone": "",
    "description": "Little Free Pantry - Take what you need, leave what you can"
  },
  {
    "name": "Acacia Park Lutheran Church",
    "type": "food_box",
    "id": "little-pantry-63",
    "address": "Acacia Park Evangelical Lutheran Church, 4307, Oriole Avenue, Norridge, Norwood Park Township, Cook County, Illinois, 60706, United States",
    "city": "Norridge",
    "state": "Illinois",
    "coordinates": {
      "lat": 41.9582542,
      "lng": -87.8165534
    },
    "hours": "24/7",
    "phone": "",
    "description": "Little Free Pantry - Take what you need, leave what you can"
  },
  {
    "name": "Unitarian Universalist San Mateo",
    "type": "food_box",
    "id": "little-pantry-69",
    "address": "Unitarian Universalist Fellowship of Redwood City, 2124, Brewster Avenue, Redwood City, San Mateo County, California, 94063, United States",
    "city": "Redwood City",
    "state": "California",
    "coordinates": {
      "lat": 37.4801,
      "lng": -122.2454935
    },
    "hours": "24/7",
    "phone": "",
    "description": "Little Free Pantry - Take what you need, leave what you can"
  },
  {
    "name": "Free Little Pantry",
    "type": "food_box",
    "id": "little-pantry-70",
    "address": "Free Little Pantry, Greenwood Avenue, Windsor Terrace, Brooklyn, Kings County, City of New York, New York, 11218, United States",
    "city": "City of New York",
    "state": "New York",
    "coordinates": {
      "lat": 40.6514427,
      "lng": -73.9754462
    },
    "hours": "24/7",
    "phone": "",
    "description": "Little Free Pantry - Take what you need, leave what you can"
  },
  {
    "name": "Give & Take",
    "type": "food_box",
    "id": "little-pantry-92",
    "address": "Give & Take, 1, A J Gordon Court, Hamilton, Essex County, Massachusetts, 01936, United States",
    "city": "Hamilton",
    "state": "Massachusetts",
    "coordinates": {
      "lat": 42.61257,
      "lng": -70.8420797
    },
    "hours": "24/7",
    "phone": "",
    "description": "Little Free Pantry - Take what you need, leave what you can"
  },
  {
    "name": "Little Free Pantry - Toledo - Franklin Park",
    "type": "food_box",
    "id": "little-pantry-103",
    "address": "Franklin Park, Leyden Township, Cook County, Illinois, United States",
    "city": "Franklin Park",
    "state": "Illinois",
    "coordinates": {
      "lat": 41.9353084,
      "lng": -87.865618
    },
    "hours": "24/7",
    "phone": "",
    "description": "Little Free Pantry - Take what you need, leave what you can"
  },
  {
    "name": "Ebenezer United Church of Christ",
    "type": "food_box",
    "id": "little-pantry-109",
    "address": "Ebenezer United Church of Christ, South Salt Creek, Lincoln, Lancaster County, Nebraska, United States",
    "city": "Lincoln",
    "state": "Nebraska",
    "coordinates": {
      "lat": 40.8000494,
      "lng": -96.709783
    },
    "hours": "24/7",
    "phone": "",
    "description": "Little Free Pantry - Take what you need, leave what you can"
  },
  {
    "name": "Magnolia Pantry",
    "type": "food_box",
    "id": "little-pantry-111",
    "address": "Pantry on Magnolia, 1308, Hemphill Street, Fort Worth, Tarrant County, Texas, 76104, United States",
    "city": "Fort Worth",
    "state": "Texas",
    "coordinates": {
      "lat": 32.7305169,
      "lng": -97.3321429
    },
    "hours": "24/7",
    "phone": "",
    "description": "Little Free Pantry - Take what you need, leave what you can"
  },
  {
    "name": "St. Timothy's",
    "type": "food_box",
    "id": "little-pantry-112",
    "address": "St Timothy's, 8101, Beechmont Avenue, Beechmont Avenue Business District, Cherry Grove, Cincinnati, Anderson Township, Hamilton County, Ohio, 45255, United States",
    "city": "Cincinnati",
    "state": "Ohio",
    "coordinates": {
      "lat": 39.072608,
      "lng": -84.330413
    },
    "hours": "24/7",
    "phone": "",
    "description": "Little Free Pantry - Take what you need, leave what you can"
  },
  {
    "name": "UU Church of Farmington",
    "type": "food_box",
    "id": "little-pantry-114",
    "address": "Church Avenue, Town of Farmington, Ontario County, New York, 14425, United States",
    "city": "",
    "state": "New York",
    "coordinates": {
      "lat": 43.0315552,
      "lng": -77.3330992
    },
    "hours": "24/7",
    "phone": "",
    "description": "Little Free Pantry - Take what you need, leave what you can"
  },
  {
    "name": "Garden Path",
    "type": "food_box",
    "id": "little-pantry-117",
    "address": "Garden Path, Braun's Farm, San Antonio, Bexar County, Texas, 78254, United States",
    "city": "San Antonio",
    "state": "Texas",
    "coordinates": {
      "lat": 29.5398356,
      "lng": -98.6746839
    },
    "hours": "24/7",
    "phone": "",
    "description": "Little Free Pantry - Take what you need, leave what you can"
  },
  {
    "name": "FREE LITTLE MARKET",
    "type": "food_box",
    "id": "little-pantry-118",
    "address": "Little Free Library - MOM's Organic Market, 5263, Campbell Boulevard, Nottingham, White Marsh, Baltimore County, Maryland, 21236, United States",
    "city": "White Marsh",
    "state": "Maryland",
    "coordinates": {
      "lat": 39.3677013,
      "lng": -76.4533067
    },
    "hours": "24/7",
    "phone": "",
    "description": "Little Free Pantry - Take what you need, leave what you can"
  },
  {
    "name": "Bethesda Md",
    "type": "food_box",
    "id": "little-pantry-121",
    "address": "Super Cleaners USA at Bethesda Row, Hampden Lane, Bethesda Row, Bethesda, Montgomery County, Maryland, 20814, United States",
    "city": "Bethesda",
    "state": "Maryland",
    "coordinates": {
      "lat": 38.9825377,
      "lng": -77.096652
    },
    "hours": "24/7",
    "phone": "",
    "description": "Little Free Pantry - Take what you need, leave what you can"
  },
  {
    "name": "Little Free Pantry - Hilton Village",
    "type": "food_box",
    "id": "little-pantry-124",
    "address": "Hilton Village, Fayette County, West Virginia, United States",
    "city": "",
    "state": "West Virginia",
    "coordinates": {
      "lat": 38.0151141,
      "lng": -80.9014837
    },
    "hours": "24/7",
    "phone": "",
    "description": "Little Free Pantry - Take what you need, leave what you can"
  },
  {
    "name": "Holly Police Station",
    "type": "food_box",
    "id": "little-pantry-125",
    "address": "Holly Springs Police Station, Palm Street, Holly Springs, Cherokee County, Georgia, 30146, United States",
    "city": "Holly Springs",
    "state": "Georgia",
    "coordinates": {
      "lat": 34.173,
      "lng": -84.5005
    },
    "hours": "24/7",
    "phone": "",
    "description": "Little Free Pantry - Take what you need, leave what you can"
  },
  {
    "name": "Evansville community",
    "type": "food_box",
    "id": "little-pantry-130",
    "address": "Evansville Community Partnership, Antes Drive, Evansville, Rock County, Wisconsin, 53536, United States",
    "city": "Evansville",
    "state": "Wisconsin",
    "coordinates": {
      "lat": 42.7838415,
      "lng": -89.2995542
    },
    "hours": "24/7",
    "phone": "",
    "description": "Little Free Pantry - Take what you need, leave what you can"
  },
  {
    "name": "It takes a village",
    "type": "food_box",
    "id": "little-pantry-154",
    "address": "It takes a Village, 202, South Lane Street, Blissfield, Lenawee County, Michigan, 49228, United States",
    "city": "Blissfield",
    "state": "Michigan",
    "coordinates": {
      "lat": 41.8312934,
      "lng": -83.8636608
    },
    "hours": "24/7",
    "phone": "",
    "description": "Little Free Pantry - Take what you need, leave what you can"
  },
  {
    "name": "Lil Free Pantry",
    "type": "food_box",
    "id": "little-pantry-159",
    "address": "Molly's Little Free Pantry, Nay Aug Road, Scranton, Lackawanna County, Pennsylvania, 18510, United States",
    "city": "Scranton",
    "state": "Pennsylvania",
    "coordinates": {
      "lat": 41.3993099,
      "lng": -75.6433104
    },
    "hours": "24/7",
    "phone": "",
    "description": "Little Free Pantry - Take what you need, leave what you can"
  },
  {
    "name": "Neighborhood Pantry",
    "type": "food_box",
    "id": "little-pantry-172",
    "address": "Neighborhood Pantry, 1469, Glen Lake Road, High Point, Hoffman Estates, Schaumburg Township, Cook County, Illinois, 60169, United States",
    "city": "Hoffman Estates",
    "state": "Illinois",
    "coordinates": {
      "lat": 42.0532786,
      "lng": -88.1109406
    },
    "hours": "24/7",
    "phone": "",
    "description": "Little Free Pantry - Take what you need, leave what you can"
  },
  {
    "name": "Cassell Rd",
    "type": "food_box",
    "id": "little-pantry-174",
    "address": "Cassell Road, Manhattan, Riley County, Kansas, 66502, United States",
    "city": "Manhattan",
    "state": "Kansas",
    "coordinates": {
      "lat": 39.202146,
      "lng": -96.6058004
    },
    "hours": "24/7",
    "phone": "",
    "description": "Little Free Pantry - Take what you need, leave what you can"
  },
  {
    "name": "Fairview Church",
    "type": "food_box",
    "id": "little-pantry-175",
    "address": "Fairview Church, Harbison Crossroads, Knox County, East Tennessee, Tennessee, United States",
    "city": "",
    "state": "Tennessee",
    "coordinates": {
      "lat": 36.118947,
      "lng": -83.8617001
    },
    "hours": "24/7",
    "phone": "",
    "description": "Little Free Pantry - Take what you need, leave what you can"
  },
  {
    "name": "Rural Retreat Public Library",
    "type": "food_box",
    "id": "little-pantry-177",
    "address": "Rural Retreat Public Library, 119, North Greever Street, Rural Retreat, Wythe County, Virginia, 24368, United States",
    "city": "Rural Retreat",
    "state": "Virginia",
    "coordinates": {
      "lat": 36.8953419,
      "lng": -81.2716396
    },
    "hours": "24/7",
    "phone": "",
    "description": "Little Free Pantry - Take what you need, leave what you can"
  },
  {
    "name": "Grace Lutheran Church",
    "type": "food_box",
    "id": "little-pantry-178",
    "address": "Grace Lutheran Church, Charlotte, Mecklenburg County, North Carolina, United States",
    "city": "Charlotte",
    "state": "North Carolina",
    "coordinates": {
      "lat": 35.1122223,
      "lng": -80.7787984
    },
    "hours": "24/7",
    "phone": "",
    "description": "Little Free Pantry - Take what you need, leave what you can"
  },
  {
    "name": "Revida",
    "type": "food_box",
    "id": "little-pantry-179",
    "address": "ReVIDA® Recovery Center Fountain City, 2911, Essary Drive, Harrill Hills, Fountain City, Knoxville, Knox County, East Tennessee, Tennessee, 37918, United States",
    "city": "Knoxville",
    "state": "Tennessee",
    "coordinates": {
      "lat": 36.0353994,
      "lng": -83.9295739
    },
    "hours": "24/7",
    "phone": "",
    "description": "Little Free Pantry - Take what you need, leave what you can"
  },
  {
    "name": "Walnut Grove Presbyterian Church",
    "type": "food_box",
    "id": "little-pantry-182",
    "address": "Walnut Grove Presbyterian Church, Glacier Point Court, Whitley Place, Prosper, Collin County, Texas, United States",
    "city": "Prosper",
    "state": "Texas",
    "coordinates": {
      "lat": 33.23747,
      "lng": -96.73587
    },
    "hours": "24/7",
    "phone": "",
    "description": "Little Free Pantry - Take what you need, leave what you can"
  },
  {
    "name": "Open Door Community",
    "type": "food_box",
    "id": "little-pantry-183",
    "address": "Open Door Mennonite Church, West Capitol Street, Cooperative Community, Jackson, Hinds County, Mississippi, 39203, United States",
    "city": "Jackson",
    "state": "Mississippi",
    "coordinates": {
      "lat": 32.3145902,
      "lng": -90.2125888
    },
    "hours": "24/7",
    "phone": "",
    "description": "Little Free Pantry - Take what you need, leave what you can"
  },
  {
    "name": "Sunny Hills Church",
    "type": "food_box",
    "id": "little-pantry-185",
    "address": "Sunny Hills Community Church, 3768, Country Club Boulevard, Washington County, Florida, United States",
    "city": "",
    "state": "Florida",
    "coordinates": {
      "lat": 30.5649273,
      "lng": -85.5811179
    },
    "hours": "24/7",
    "phone": "",
    "description": "Little Free Pantry - Take what you need, leave what you can"
  },
  {
    "name": "Little st Manchester ct",
    "type": "food_box",
    "id": "little-pantry-197",
    "address": "Little Street, Manchester, Capitol Planning Region, Connecticut, 06040, United States",
    "city": "Manchester",
    "state": "Connecticut",
    "coordinates": {
      "lat": 41.7792128,
      "lng": -72.5330601
    },
    "hours": "24/7",
    "phone": "",
    "description": "Little Free Pantry - Take what you need, leave what you can"
  },
  {
    "name": "Summit st, Manchester",
    "type": "food_box",
    "id": "little-pantry-198",
    "address": "Summit Street, Manchester, Washtenaw County, Michigan, 48158, United States",
    "city": "Manchester",
    "state": "Michigan",
    "coordinates": {
      "lat": 42.1478428,
      "lng": -84.0289295
    },
    "hours": "24/7",
    "phone": "",
    "description": "Little Free Pantry - Take what you need, leave what you can"
  },
  {
    "name": "GOD BOX",
    "type": "food_box",
    "id": "little-pantry-199",
    "address": "Missionary Assembly of God Church, Webster Avenue, Mill Hill, Chelsea, Suffolk County, Massachusetts, 02150, United States",
    "city": "Chelsea",
    "state": "Massachusetts",
    "coordinates": {
      "lat": 42.3995414,
      "lng": -71.0219949
    },
    "hours": "24/7",
    "phone": "",
    "description": "Little Free Pantry - Take what you need, leave what you can"
  },
  {
    "name": "Altoona Public Library",
    "type": "food_box",
    "id": "little-pantry-208",
    "address": "Altoona Public Library, 5th Avenue, Altoona, Blair County, Pennsylvania, 16602, United States",
    "city": "Altoona",
    "state": "Pennsylvania",
    "coordinates": {
      "lat": 40.5081673,
      "lng": -78.3993333
    },
    "hours": "24/7",
    "phone": "",
    "description": "Little Free Pantry - Take what you need, leave what you can"
  },
  {
    "name": "Neighborhood pantry",
    "type": "food_box",
    "id": "little-pantry-209",
    "address": "Neighborhood Pantry, 1469, Glen Lake Road, High Point, Hoffman Estates, Schaumburg Township, Cook County, Illinois, 60169, United States",
    "city": "Hoffman Estates",
    "state": "Illinois",
    "coordinates": {
      "lat": 42.0532786,
      "lng": -88.1109406
    },
    "hours": "24/7",
    "phone": "",
    "description": "Little Free Pantry - Take what you need, leave what you can"
  },
  {
    "name": "Midtown Grand Rapids - Old East End",
    "type": "food_box",
    "id": "little-pantry-216",
    "address": "Old East End Boulevard, Liewellyn Corners, Bear Creek Township, Luzerne County, Pennsylvania, 18711, United States",
    "city": "Bear Creek Township",
    "state": "Pennsylvania",
    "coordinates": {
      "lat": 41.2279412,
      "lng": -75.8026016
    },
    "hours": "24/7",
    "phone": "",
    "description": "Little Free Pantry - Take what you need, leave what you can"
  },
  {
    "name": "Blessing box",
    "type": "food_box",
    "id": "little-pantry-218",
    "address": "Blessing Box (food), Alabama Avenue, Dutchtown, Saint Louis, Missouri, 63111, United States",
    "city": "Saint Louis",
    "state": "Missouri",
    "coordinates": {
      "lat": 38.5707055,
      "lng": -90.2448629
    },
    "hours": "24/7",
    "phone": "",
    "description": "Little Free Pantry - Take what you need, leave what you can"
  },
  {
    "name": "Down Town Gilbert",
    "type": "food_box",
    "id": "little-pantry-224",
    "address": "Down Town Gilbert Parking, North Ash Street, Gilbert, Maricopa County, Arizona, 85233, United States",
    "city": "Gilbert",
    "state": "Arizona",
    "coordinates": {
      "lat": 33.3583969,
      "lng": -111.7907169
    },
    "hours": "24/7",
    "phone": "",
    "description": "Little Free Pantry - Take what you need, leave what you can"
  },
  {
    "name": "Food Pantry",
    "type": "food_box",
    "id": "little-pantry-225",
    "address": "Food Pantry, Loch Raven Road, East Baltimore Midway, Baltimore, Maryland, 21218, United States",
    "city": "Baltimore",
    "state": "Maryland",
    "coordinates": {
      "lat": 39.3174662,
      "lng": -76.6076724
    },
    "hours": "24/7",
    "phone": "",
    "description": "Little Free Pantry - Take what you need, leave what you can"
  },
  {
    "name": "Commercial Ave",
    "type": "food_box",
    "id": "little-pantry-230",
    "address": "Commercial Avenue, Baltimore, Maryland, 21237, United States",
    "city": "Baltimore",
    "state": "Maryland",
    "coordinates": {
      "lat": 39.313728,
      "lng": -76.536769
    },
    "hours": "24/7",
    "phone": "",
    "description": "Little Free Pantry - Take what you need, leave what you can"
  },
  {
    "name": "Little Free Pantry",
    "type": "food_box",
    "id": "little-pantry-234",
    "address": "Little Free Pantry, North 6th Street, Williamsburg, Brooklyn, Kings County, City of New York, New York, 11211, United States",
    "city": "City of New York",
    "state": "New York",
    "coordinates": {
      "lat": 40.7192193,
      "lng": -73.9615918
    },
    "hours": "24/7",
    "phone": "",
    "description": "Little Free Pantry - Take what you need, leave what you can"
  },
  {
    "name": "Meals on Main",
    "type": "food_box",
    "id": "little-pantry-238",
    "address": "Meals on Wheels People, 1032, Southwest Main Street, University District, Downtown, Portland, Multnomah County, Oregon, 97205, United States",
    "city": "Portland",
    "state": "Oregon",
    "coordinates": {
      "lat": 45.5174026,
      "lng": -122.6844281
    },
    "hours": "24/7",
    "phone": "",
    "description": "Little Free Pantry - Take what you need, leave what you can"
  },
  {
    "name": "Community Care Pantry",
    "type": "food_box",
    "id": "little-pantry-247",
    "address": "Community Care Center - Braidwood (Food Pantry), 112, South Center Street, Braidwood, Will County, Illinois, 60408, United States",
    "city": "Braidwood",
    "state": "Illinois",
    "coordinates": {
      "lat": 41.2640326,
      "lng": -88.2175124
    },
    "hours": "24/7",
    "phone": "",
    "description": "Little Free Pantry - Take what you need, leave what you can"
  },
  {
    "name": "First Presbyterian Church",
    "type": "food_box",
    "id": "little-pantry-251",
    "address": "First Presbyterian Church, 48, 5th Avenue, Greenwich Village, Manhattan, New York County, City of New York, New York, 10011, United States",
    "city": "City of New York",
    "state": "New York",
    "coordinates": {
      "lat": 40.7344949,
      "lng": -73.9952042
    },
    "hours": "24/7",
    "phone": "",
    "description": "Little Free Pantry - Take what you need, leave what you can"
  },
  {
    "name": "SWANSEA",
    "type": "food_box",
    "id": "little-pantry-252",
    "address": "Swansea, Saint Clair County, Illinois, United States",
    "city": "Swansea",
    "state": "Illinois",
    "coordinates": {
      "lat": 38.5339392,
      "lng": -89.9889936
    },
    "hours": "24/7",
    "phone": "",
    "description": "Little Free Pantry - Take what you need, leave what you can"
  },
  {
    "name": "Pine Beach Chapel",
    "type": "food_box",
    "id": "little-pantry-257",
    "address": "Pine Beach Chapel, Huntington Avenue, Pine Beach, Ocean County, New Jersey, 08741, United States",
    "city": "Pine Beach",
    "state": "New Jersey",
    "coordinates": {
      "lat": 39.9368803,
      "lng": -74.1685347
    },
    "hours": "24/7",
    "phone": "",
    "description": "Little Free Pantry - Take what you need, leave what you can"
  },
  {
    "name": "The barn",
    "type": "food_box",
    "id": "little-pantry-265",
    "address": "Williams Arena, 1925, Southeast University Avenue, Minneapolis, Hennepin County, Minnesota, 55455, United States",
    "city": "Minneapolis",
    "state": "Minnesota",
    "coordinates": {
      "lat": 44.9769776,
      "lng": -93.2282704
    },
    "hours": "24/7",
    "phone": "",
    "description": "Little Free Pantry - Take what you need, leave what you can"
  },
  {
    "name": "East pantry.",
    "type": "food_box",
    "id": "little-pantry-266",
    "address": "East LA Community Corporation Food Pantry, 611, South Lorena Street, Los Angeles, Los Angeles County, California, 90023, United States",
    "city": "Los Angeles",
    "state": "California",
    "coordinates": {
      "lat": 34.0306389,
      "lng": -118.199531
    },
    "hours": "24/7",
    "phone": "",
    "description": "Little Free Pantry - Take what you need, leave what you can"
  },
  {
    "name": "S Franklin Food Bin",
    "type": "food_box",
    "id": "little-pantry-270",
    "address": "Franklin's, 53, Public Square, Wilkes-Barre, Luzerne County, Pennsylvania, 18701, United States",
    "city": "Wilkes-Barre",
    "state": "Pennsylvania",
    "coordinates": {
      "lat": 41.2452891,
      "lng": -75.8820406
    },
    "hours": "24/7",
    "phone": "",
    "description": "Little Free Pantry - Take what you need, leave what you can"
  },
  {
    "name": "Morgan Memorial Library",
    "type": "food_box",
    "id": "little-pantry-272",
    "address": "Morgan Memorial Library, 443, West Washington Street, Azalea Acres, Suffolk, Virginia, 23434, United States",
    "city": "Suffolk",
    "state": "Virginia",
    "coordinates": {
      "lat": 36.729384,
      "lng": -76.5891265
    },
    "hours": "24/7",
    "phone": "",
    "description": "Little Free Pantry - Take what you need, leave what you can"
  },
  {
    "name": "North Suffolk Library",
    "type": "food_box",
    "id": "little-pantry-273",
    "address": "North Suffolk Library, 2000, Bennetts Creek Park Road, Parkside, Bennett Creek, Suffolk, Virginia, 23435, United States",
    "city": "Suffolk",
    "state": "Virginia",
    "coordinates": {
      "lat": 36.8522058,
      "lng": -76.4710853
    },
    "hours": "24/7",
    "phone": "",
    "description": "Little Free Pantry - Take what you need, leave what you can"
  },
  {
    "name": "St. James Episcopal Church",
    "type": "food_box",
    "id": "little-pantry-277",
    "address": "Saint James Church, 865, Madison Avenue, Manhattan Community Board 8, Manhattan, New York County, City of New York, New York, 10021, United States",
    "city": "City of New York",
    "state": "New York",
    "coordinates": {
      "lat": 40.771166,
      "lng": -73.9654174
    },
    "hours": "24/7",
    "phone": "",
    "description": "Little Free Pantry - Take what you need, leave what you can"
  },
  {
    "name": "Free Pantry",
    "type": "food_box",
    "id": "little-pantry-281",
    "address": "Free Pantry, West Market Avenue, Legacy Park, Searcy, White County, Arkansas, 72143, United States",
    "city": "Searcy",
    "state": "Arkansas",
    "coordinates": {
      "lat": 35.2495292,
      "lng": -91.7404377
    },
    "hours": "24/7",
    "phone": "",
    "description": "Little Free Pantry - Take what you need, leave what you can"
  },
  {
    "name": "Little Pantry",
    "type": "food_box",
    "id": "little-pantry-295",
    "address": "Little Free Pantry, North 6th Street, Williamsburg, Brooklyn, Kings County, City of New York, New York, 11211, United States",
    "city": "City of New York",
    "state": "New York",
    "coordinates": {
      "lat": 40.7192193,
      "lng": -73.9615918
    },
    "hours": "24/7",
    "phone": "",
    "description": "Little Free Pantry - Take what you need, leave what you can"
  },
  {
    "name": "Community Cupboard",
    "type": "food_box",
    "id": "little-pantry-300",
    "address": "Community Cupboard, 219, 14th Street, Wastewater Treatment Plant, Leavenworth, Chelan County, Washington, United States",
    "city": "Leavenworth",
    "state": "Washington",
    "coordinates": {
      "lat": 47.5983335,
      "lng": -120.6540159
    },
    "hours": "24/7",
    "phone": "",
    "description": "Little Free Pantry - Take what you need, leave what you can"
  },
  {
    "name": "Centerton Gamble Elementary",
    "type": "food_box",
    "id": "little-pantry-311",
    "address": "Centerton Gamble Elementary School, 1550, Gamble Road, Seba, Centerton, Benton County, Arkansas, 72719, United States",
    "city": "Centerton",
    "state": "Arkansas",
    "coordinates": {
      "lat": 36.3815388,
      "lng": -94.291876
    },
    "hours": "24/7",
    "phone": "",
    "description": "Little Free Pantry - Take what you need, leave what you can"
  },
  {
    "name": "Oaks of Atascocita",
    "type": "food_box",
    "id": "little-pantry-313",
    "address": "Oaks of Atascocita, Atascocita, Harris County, Texas, United States",
    "city": "Atascocita",
    "state": "Texas",
    "coordinates": {
      "lat": 30.0057691,
      "lng": -95.1858358
    },
    "hours": "24/7",
    "phone": "",
    "description": "Little Free Pantry - Take what you need, leave what you can"
  },
  {
    "name": "The Silo",
    "type": "food_box",
    "id": "little-pantry-319",
    "address": "The Silo, Cross Country Trail, Hunting Valley, Cuyahoga County, Ohio, 44040, United States",
    "city": "Hunting Valley",
    "state": "Ohio",
    "coordinates": {
      "lat": 41.4930995,
      "lng": -81.4228559
    },
    "hours": "24/7",
    "phone": "",
    "description": "Little Free Pantry - Take what you need, leave what you can"
  },
  {
    "name": "little free pantry",
    "type": "food_box",
    "id": "little-pantry-321",
    "address": "Little Free Pantry, North 6th Street, Williamsburg, Brooklyn, Kings County, City of New York, New York, 11211, United States",
    "city": "City of New York",
    "state": "New York",
    "coordinates": {
      "lat": 40.7192193,
      "lng": -73.9615918
    },
    "hours": "24/7",
    "phone": "",
    "description": "Little Free Pantry - Take what you need, leave what you can"
  },
  {
    "name": "Woodland Hills at Mason Creek",
    "type": "food_box",
    "id": "little-pantry-327",
    "address": "Woodland Hills at Mason Creek, 14206, FM 968 West, Longview, Harrison County, Texas, 75602, United States",
    "city": "Longview",
    "state": "Texas",
    "coordinates": {
      "lat": 32.4619729,
      "lng": -94.6428035
    },
    "hours": "24/7",
    "phone": "",
    "description": "Little Free Pantry - Take what you need, leave what you can"
  },
  {
    "name": "Fairfax Presbyterian Church",
    "type": "food_box",
    "id": "little-pantry-333",
    "address": "Fairfax Presbyterian Church, Crest Street, Ardmore, Fairfax, Virginia, 22030, United States",
    "city": "Fairfax",
    "state": "Virginia",
    "coordinates": {
      "lat": 38.8468585,
      "lng": -77.3171637
    },
    "hours": "24/7",
    "phone": "",
    "description": "Little Free Pantry - Take what you need, leave what you can"
  },
  {
    "name": "Westlake",
    "type": "food_box",
    "id": "little-pantry-337",
    "address": "Westlake, Denton County, Texas, 76262, United States",
    "city": "Westlake",
    "state": "Texas",
    "coordinates": {
      "lat": 32.991226,
      "lng": -97.1943701
    },
    "hours": "24/7",
    "phone": "",
    "description": "Little Free Pantry - Take what you need, leave what you can"
  },
  {
    "name": "Lynchburg Church of the Brethren",
    "type": "food_box",
    "id": "little-pantry-338",
    "address": "Lynchburg Church of the Brethren, 200, Atlanta Avenue, Southland Acres, Lynchburg, Virginia, 24502, United States",
    "city": "Lynchburg",
    "state": "Virginia",
    "coordinates": {
      "lat": 37.3501123,
      "lng": -79.1891881
    },
    "hours": "24/7",
    "phone": "",
    "description": "Little Free Pantry - Take what you need, leave what you can"
  },
  {
    "name": "Community Pantry",
    "type": "food_box",
    "id": "little-pantry-342",
    "address": "Community Pantry, 57th Avenue South, Rainier Beach, Seattle, King County, Washington, 98178, United States",
    "city": "Seattle",
    "state": "Washington",
    "coordinates": {
      "lat": 47.51964,
      "lng": -122.2614449
    },
    "hours": "24/7",
    "phone": "",
    "description": "Little Free Pantry - Take what you need, leave what you can"
  },
  {
    "name": "Little Free Library",
    "type": "food_box",
    "id": "little-pantry-347",
    "address": "Little Free Library, Butler Street, Brooklyn, Kings County, City of New York, New York, 11231, United States",
    "city": "City of New York",
    "state": "New York",
    "coordinates": {
      "lat": 40.684062,
      "lng": -73.9920341
    },
    "hours": "24/7",
    "phone": "",
    "description": "Little Free Pantry - Take what you need, leave what you can"
  },
  {
    "name": "Free Community Pantry",
    "type": "food_box",
    "id": "little-pantry-351",
    "address": "Community Connecting Us - Food Pantry & Little Free Library, North Main Street, Rock Run, Port Deposit, Cecil County, Maryland, 21094, United States",
    "city": "Port Deposit",
    "state": "Maryland",
    "coordinates": {
      "lat": 39.6078352,
      "lng": -76.1183216
    },
    "hours": "24/7",
    "phone": "",
    "description": "Little Free Pantry - Take what you need, leave what you can"
  },
  {
    "name": "First Landmark Baptist Church - Bentonville",
    "type": "food_box",
    "id": "little-pantry-365",
    "address": "Bentonville, Benton County, Arkansas, United States",
    "city": "Bentonville",
    "state": "Arkansas",
    "coordinates": {
      "lat": 36.3728608,
      "lng": -94.208787
    },
    "hours": "24/7",
    "phone": "",
    "description": "Little Free Pantry - Take what you need, leave what you can"
  },
  {
    "name": "Bryant Woods Elementary",
    "type": "food_box",
    "id": "little-pantry-366",
    "address": "Bryant Woods Elementary School, Blue Heron Lane, Bryant Woods, Wilde Lake, Howard County, Maryland, 21044, United States",
    "city": "",
    "state": "Maryland",
    "coordinates": {
      "lat": 39.2213566,
      "lng": -76.8677308
    },
    "hours": "24/7",
    "phone": "",
    "description": "Little Free Pantry - Take what you need, leave what you can"
  },
  {
    "name": "Jerusalem Chapel Church",
    "type": "food_box",
    "id": "little-pantry-371",
    "address": "Jerusalem Chapel, Williams Avenue, Memphis, Shelby County, West Tennessee, Tennessee, 38126, United States",
    "city": "Memphis",
    "state": "Tennessee",
    "coordinates": {
      "lat": 35.1220348,
      "lng": -90.0398133
    },
    "hours": "24/7",
    "phone": "",
    "description": "Little Free Pantry - Take what you need, leave what you can"
  },
  {
    "name": "North Mankato Taylor Library",
    "type": "food_box",
    "id": "little-pantry-374",
    "address": "North Mankato Taylor Library, Belgrade Avenue, Riverbend Estates, North Mankato, Nicollet County, Minnesota, 56003, United States",
    "city": "North Mankato",
    "state": "Minnesota",
    "coordinates": {
      "lat": 44.1686803,
      "lng": -94.0253307
    },
    "hours": "24/7",
    "phone": "",
    "description": "Little Free Pantry - Take what you need, leave what you can"
  },
  {
    "name": "SCARLETT",
    "type": "food_box",
    "id": "little-pantry-379",
    "address": "Scarlett Hill, Orange County, North Carolina, United States",
    "city": "",
    "state": "North Carolina",
    "coordinates": {
      "lat": 36.0243077,
      "lng": -79.0939012
    },
    "hours": "24/7",
    "phone": "",
    "description": "Little Free Pantry - Take what you need, leave what you can"
  },
  {
    "name": "Garfield Middle School",
    "type": "food_box",
    "id": "little-pantry-388",
    "address": "Garfield Middle School, North Fair Avenue, Dayton-Campbell Historic District, East Hamilton, Hamilton, Butler County, Ohio, 45011, United States",
    "city": "Hamilton",
    "state": "Ohio",
    "coordinates": {
      "lat": 39.3948861,
      "lng": -84.5406416
    },
    "hours": "24/7",
    "phone": "",
    "description": "Little Free Pantry - Take what you need, leave what you can"
  },
  {
    "name": "16207 Redland Rd",
    "type": "food_box",
    "id": "little-pantry-390",
    "address": "16207, Redland Road, Westside, Shady Grove, Derwood, Montgomery County, Maryland, 20855, United States",
    "city": "Derwood",
    "state": "Maryland",
    "coordinates": {
      "lat": 39.1220856,
      "lng": -77.1566266
    },
    "hours": "24/7",
    "phone": "",
    "description": "Little Free Pantry - Take what you need, leave what you can"
  },
  {
    "name": "Lil’ Free Pantry",
    "type": "food_box",
    "id": "little-pantry-393",
    "address": "Molly's Little Free Pantry, Nay Aug Road, Scranton, Lackawanna County, Pennsylvania, 18510, United States",
    "city": "Scranton",
    "state": "Pennsylvania",
    "coordinates": {
      "lat": 41.3993099,
      "lng": -75.6433104
    },
    "hours": "24/7",
    "phone": "",
    "description": "Little Free Pantry - Take what you need, leave what you can"
  },
  {
    "name": "Our Saviors Lutheran Church",
    "type": "food_box",
    "id": "little-pantry-402",
    "address": "Our Saviors Lutheran Church, 549, Bard Avenue, Staten Island, Richmond County, City of New York, New York, 10301, United States",
    "city": "City of New York",
    "state": "New York",
    "coordinates": {
      "lat": 40.6301456,
      "lng": -74.1055718
    },
    "hours": "24/7",
    "phone": "",
    "description": "Little Free Pantry - Take what you need, leave what you can"
  },
  {
    "name": "Bread Shed",
    "type": "food_box",
    "id": "little-pantry-408",
    "address": "The Bread Shed, 80, Krif Road, Keene, Cheshire County, New Hampshire, 03431, United States",
    "city": "Keene",
    "state": "New Hampshire",
    "coordinates": {
      "lat": 42.9158928,
      "lng": -72.2895039
    },
    "hours": "24/7",
    "phone": "",
    "description": "Little Free Pantry - Take what you need, leave what you can"
  },
  {
    "name": "Sanctuary on Main",
    "type": "food_box",
    "id": "little-pantry-423",
    "address": "St. Timothy on the Northshore - Main Sanctuary, 335, Asbury Drive, Mandeville, St. Tammany Parish, Louisiana, 70471, United States",
    "city": "Mandeville",
    "state": "Louisiana",
    "coordinates": {
      "lat": 30.3937005,
      "lng": -90.0830562
    },
    "hours": "24/7",
    "phone": "",
    "description": "Little Free Pantry - Take what you need, leave what you can"
  },
  {
    "name": "First Presbyterian Church of Annapolis",
    "type": "food_box",
    "id": "little-pantry-424",
    "address": "First Presbyterian Church of Annapolis, Conduit Street, New Point, Annapolis, Anne Arundel County, Maryland, 21401, United States",
    "city": "Annapolis",
    "state": "Maryland",
    "coordinates": {
      "lat": 38.9765465,
      "lng": -76.4903519
    },
    "hours": "24/7",
    "phone": "",
    "description": "Little Free Pantry - Take what you need, leave what you can"
  },
  {
    "name": "Sherwood",
    "type": "food_box",
    "id": "little-pantry-428",
    "address": "Sherwood, Hill Township, Pulaski County, Arkansas, 72120, United States",
    "city": "Sherwood",
    "state": "Arkansas",
    "coordinates": {
      "lat": 34.8150907,
      "lng": -92.2243153
    },
    "hours": "24/7",
    "phone": "",
    "description": "Little Free Pantry - Take what you need, leave what you can"
  },
  {
    "name": "Blessing Box",
    "type": "food_box",
    "id": "little-pantry-431",
    "address": "Blessing Box (food), Alabama Avenue, Dutchtown, Saint Louis, Missouri, 63111, United States",
    "city": "Saint Louis",
    "state": "Missouri",
    "coordinates": {
      "lat": 38.5707055,
      "lng": -90.2448629
    },
    "hours": "24/7",
    "phone": "",
    "description": "Little Free Pantry - Take what you need, leave what you can"
  },
  {
    "name": "21st Street",
    "type": "food_box",
    "id": "little-pantry-436",
    "address": "21st Street, Jackson Avenue, Long Island City, Queens, Queens County, City of New York, New York, 11101, United States",
    "city": "City of New York",
    "state": "New York",
    "coordinates": {
      "lat": 40.744065,
      "lng": -73.949724
    },
    "hours": "24/7",
    "phone": "",
    "description": "Little Free Pantry - Take what you need, leave what you can"
  },
  {
    "name": "Free Lil Pantry",
    "type": "food_box",
    "id": "little-pantry-444",
    "address": "Molly's Little Free Pantry, Nay Aug Road, Scranton, Lackawanna County, Pennsylvania, 18510, United States",
    "city": "Scranton",
    "state": "Pennsylvania",
    "coordinates": {
      "lat": 41.3993099,
      "lng": -75.6433104
    },
    "hours": "24/7",
    "phone": "",
    "description": "Little Free Pantry - Take what you need, leave what you can"
  },
  {
    "name": "Little Free Food Pantry",
    "type": "food_box",
    "id": "little-pantry-447",
    "address": "Little Free Food Pantry, East Hoffman Boulevard, Aurora, Arapahoe County, Colorado, 80045, United States",
    "city": "Aurora",
    "state": "Colorado",
    "coordinates": {
      "lat": 39.7287542,
      "lng": -104.8427001
    },
    "hours": "24/7",
    "phone": "",
    "description": "Little Free Pantry - Take what you need, leave what you can"
  },
  {
    "name": "Little Food Pantry",
    "type": "food_box",
    "id": "little-pantry-460",
    "address": "Little Food Pantry, Creekview Lane North, Brooklyn Park, Hennepin County, Minnesota, 55443, United States",
    "city": "Brooklyn Park",
    "state": "Minnesota",
    "coordinates": {
      "lat": 45.1116661,
      "lng": -93.3568238
    },
    "hours": "24/7",
    "phone": "",
    "description": "Little Free Pantry - Take what you need, leave what you can"
  },
  {
    "name": "Little Free Food Pantry - Gilbert",
    "type": "food_box",
    "id": "little-pantry-462",
    "address": "Gilbert, Maricopa County, Arizona, United States",
    "city": "Gilbert",
    "state": "Arizona",
    "coordinates": {
      "lat": 33.3527632,
      "lng": -111.789037
    },
    "hours": "24/7",
    "phone": "",
    "description": "Little Free Pantry - Take what you need, leave what you can"
  },
  {
    "name": "Sunshine House",
    "type": "food_box",
    "id": "little-pantry-463",
    "address": "Sunshine House, 2200 West, Westpointe, Salt Lake City, Salt Lake County, Utah, 84122, United States",
    "city": "Salt Lake City",
    "state": "Utah",
    "coordinates": {
      "lat": 40.786907,
      "lng": -111.9529564
    },
    "hours": "24/7",
    "phone": "",
    "description": "Little Free Pantry - Take what you need, leave what you can"
  },
  {
    "name": "VFW Post 5735",
    "type": "food_box",
    "id": "little-pantry-467",
    "address": "Labetti Post, 390, Hylan Boulevard, Staten Island, Richmond County, City of New York, New York, 10305, United States",
    "city": "City of New York",
    "state": "New York",
    "coordinates": {
      "lat": 40.609593,
      "lng": -74.0744022
    },
    "hours": "24/7",
    "phone": "",
    "description": "Little Free Pantry - Take what you need, leave what you can"
  },
  {
    "name": "Buddy Farms",
    "type": "food_box",
    "id": "little-pantry-482",
    "address": "Buddy Circle, Grandview Farms, Portland, Lower Connecticut River Valley Planning Region, Connecticut, 06480, United States",
    "city": "Portland",
    "state": "Connecticut",
    "coordinates": {
      "lat": 41.5711591,
      "lng": -72.6259621
    },
    "hours": "24/7",
    "phone": "",
    "description": "Little Free Pantry - Take what you need, leave what you can"
  },
  {
    "name": "Peace Evangelical Lutheran",
    "type": "food_box",
    "id": "little-pantry-484",
    "address": "Peace Evangelical Lutheran Church and School, Livonia, Wayne County, Michigan, United States",
    "city": "Livonia",
    "state": "Michigan",
    "coordinates": {
      "lat": 42.3607756,
      "lng": -83.3527088
    },
    "hours": "24/7",
    "phone": "",
    "description": "Little Free Pantry - Take what you need, leave what you can"
  },
  {
    "name": "Winton St",
    "type": "food_box",
    "id": "little-pantry-487",
    "address": "Winton Street, Lower Moyamensing, South Philadelphia, Philadelphia, Philadelphia County, Pennsylvania, 19148, United States",
    "city": "Philadelphia",
    "state": "Pennsylvania",
    "coordinates": {
      "lat": 39.922781,
      "lng": -75.1638342
    },
    "hours": "24/7",
    "phone": "",
    "description": "Little Free Pantry - Take what you need, leave what you can"
  },
  {
    "name": "Tartesso Community",
    "type": "food_box",
    "id": "little-pantry-495",
    "address": "Tartesso Community Sports Park, Tartesso, Buckeye, Maricopa County, Arizona, United States",
    "city": "Buckeye",
    "state": "Arizona",
    "coordinates": {
      "lat": 33.4827848,
      "lng": -112.707217
    },
    "hours": "24/7",
    "phone": "",
    "description": "Little Free Pantry - Take what you need, leave what you can"
  },
  {
    "name": "In Retrospect",
    "type": "food_box",
    "id": "little-pantry-510",
    "address": "In Retrospect, 1940, West State Street, West Downtown, North End, Boise, Ada County, Idaho, 83702, United States",
    "city": "Boise",
    "state": "Idaho",
    "coordinates": {
      "lat": 43.626471,
      "lng": -116.2148695
    },
    "hours": "24/7",
    "phone": "",
    "description": "Little Free Pantry - Take what you need, leave what you can"
  },
  {
    "name": "First Unitarian Church",
    "type": "food_box",
    "id": "little-pantry-511",
    "address": "First Unitarian Church, West Hamilton Street, Mount Vernon, Baltimore, Maryland, 21201, United States",
    "city": "Baltimore",
    "state": "Maryland",
    "coordinates": {
      "lat": 39.2954539,
      "lng": -76.6158509
    },
    "hours": "24/7",
    "phone": "",
    "description": "Little Free Pantry - Take what you need, leave what you can"
  },
  {
    "name": "Little Free Bodega",
    "type": "food_box",
    "id": "little-pantry-512",
    "address": "Little Free Library, Salmon Creek Road, Bodega, Sonoma County, California, 94922, United States",
    "city": "Bodega",
    "state": "California",
    "coordinates": {
      "lat": 38.3472055,
      "lng": -122.9770054
    },
    "hours": "24/7",
    "phone": "",
    "description": "Little Free Pantry - Take what you need, leave what you can"
  },
  {
    "name": "White Rock Elementary school",
    "type": "food_box",
    "id": "little-pantry-524",
    "address": "White Rock Elementary School, 400, Buena Vista Street, White Rock Hill, Lynchburg, Virginia, 24504, United States",
    "city": "Lynchburg",
    "state": "Virginia",
    "coordinates": {
      "lat": 37.4023994,
      "lng": -79.1338135
    },
    "hours": "24/7",
    "phone": "",
    "description": "Little Free Pantry - Take what you need, leave what you can"
  },
  {
    "name": "ECHO House",
    "type": "food_box",
    "id": "little-pantry-542",
    "address": "Echo House, Petroglyph Point Trail, Montezuma County, Colorado, 81330, United States",
    "city": "",
    "state": "Colorado",
    "coordinates": {
      "lat": 37.1675479,
      "lng": -108.5003692
    },
    "hours": "24/7",
    "phone": "",
    "description": "Little Free Pantry - Take what you need, leave what you can"
  },
  {
    "name": "Little free pantry",
    "type": "food_box",
    "id": "little-pantry-554",
    "address": "Little Free Pantry, North 6th Street, Williamsburg, Brooklyn, Kings County, City of New York, New York, 11211, United States",
    "city": "City of New York",
    "state": "New York",
    "coordinates": {
      "lat": 40.7192193,
      "lng": -73.9615918
    },
    "hours": "24/7",
    "phone": "",
    "description": "Little Free Pantry - Take what you need, leave what you can"
  },
  {
    "name": "The Little Free Pantry",
    "type": "food_box",
    "id": "little-pantry-560",
    "address": "The Little Free Pantry, Leona Street, Bevo Mill, Saint Louis, Missouri, 63116, United States",
    "city": "Saint Louis",
    "state": "Missouri",
    "coordinates": {
      "lat": 38.5689,
      "lng": -90.2690722
    },
    "hours": "24/7",
    "phone": "",
    "description": "Little Free Pantry - Take what you need, leave what you can"
  },
  {
    "name": "Roland",
    "type": "food_box",
    "id": "little-pantry-565",
    "address": "Roland, Howard Township, Story County, Iowa, 50236, United States",
    "city": "Roland",
    "state": "Iowa",
    "coordinates": {
      "lat": 42.1682437,
      "lng": -93.5000923
    },
    "hours": "24/7",
    "phone": "",
    "description": "Little Free Pantry - Take what you need, leave what you can"
  },
  {
    "name": "Community Corner",
    "type": "food_box",
    "id": "little-pantry-577",
    "address": "Cozy Corner Community, Flint, Genesee County, Michigan, United States",
    "city": "Flint",
    "state": "Michigan",
    "coordinates": {
      "lat": 43.0623868,
      "lng": -83.674623
    },
    "hours": "24/7",
    "phone": "",
    "description": "Little Free Pantry - Take what you need, leave what you can"
  },
  {
    "name": "CommUNITY Cupboard",
    "type": "food_box",
    "id": "little-pantry-598",
    "address": "Community Cupboard, 219, 14th Street, Wastewater Treatment Plant, Leavenworth, Chelan County, Washington, United States",
    "city": "Leavenworth",
    "state": "Washington",
    "coordinates": {
      "lat": 47.5983335,
      "lng": -120.6540159
    },
    "hours": "24/7",
    "phone": "",
    "description": "Little Free Pantry - Take what you need, leave what you can"
  },
  {
    "name": "Lindenhurst Memorial Library",
    "type": "food_box",
    "id": "little-pantry-602",
    "address": "Lindenhurst Memorial Library, Lee Avenue, Village of Lindenhurst, Town of Babylon, Suffolk County, New York, 11757, United States",
    "city": "Village of Lindenhurst",
    "state": "New York",
    "coordinates": {
      "lat": 40.6825,
      "lng": -73.3677778
    },
    "hours": "24/7",
    "phone": "",
    "description": "Little Free Pantry - Take what you need, leave what you can"
  },
  {
    "name": "Little Free Food Pantry - Gilbert, AZ",
    "type": "food_box",
    "id": "little-pantry-607",
    "address": "Gilbert, Maricopa County, Arizona, United States",
    "city": "Gilbert",
    "state": "Arizona",
    "coordinates": {
      "lat": 33.3527632,
      "lng": -111.789037
    },
    "hours": "24/7",
    "phone": "",
    "description": "Little Free Pantry - Take what you need, leave what you can"
  },
  {
    "name": "Blessings Box",
    "type": "food_box",
    "id": "little-pantry-610",
    "address": "Blessings Box (Food Only), South Industrial Drive, Meramec Township, Jefferson County, Missouri, 63016, United States",
    "city": "",
    "state": "Missouri",
    "coordinates": {
      "lat": 38.3502745,
      "lng": -90.6505348
    },
    "hours": "24/7",
    "phone": "",
    "description": "Little Free Pantry - Take what you need, leave what you can"
  },
  {
    "name": "Harwood Methodist Church",
    "type": "food_box",
    "id": "little-pantry-612",
    "address": "Harwood Park United Methodist Church, 6635, Highland Avenue, Harwood Park, Elkridge, Howard County, Maryland, 21075, United States",
    "city": "Elkridge",
    "state": "Maryland",
    "coordinates": {
      "lat": 39.1952655,
      "lng": -76.7384326
    },
    "hours": "24/7",
    "phone": "",
    "description": "Little Free Pantry - Take what you need, leave what you can"
  },
  {
    "name": "Free little Pantry",
    "type": "food_box",
    "id": "little-pantry-622",
    "address": "Free Little Pantry, Greenwood Avenue, Windsor Terrace, Brooklyn, Kings County, City of New York, New York, 11218, United States",
    "city": "City of New York",
    "state": "New York",
    "coordinates": {
      "lat": 40.6514427,
      "lng": -73.9754462
    },
    "hours": "24/7",
    "phone": "",
    "description": "Little Free Pantry - Take what you need, leave what you can"
  },
  {
    "name": "Unitarian Universalist Church",
    "type": "food_box",
    "id": "little-pantry-625",
    "address": "Unitarian Universalist Church, 147, High Street, Medford Square, West Medford, Medford, Middlesex County, Massachusetts, 02155, United States",
    "city": "Medford",
    "state": "Massachusetts",
    "coordinates": {
      "lat": 42.4206744,
      "lng": -71.1150149
    },
    "hours": "24/7",
    "phone": "",
    "description": "Little Free Pantry - Take what you need, leave what you can"
  },
  {
    "name": "Saint John Baptist Church",
    "type": "food_box",
    "id": "little-pantry-627",
    "address": "Saint John Baptist Church, Vance County, North Carolina, United States",
    "city": "",
    "state": "North Carolina",
    "coordinates": {
      "lat": 36.4058181,
      "lng": -78.3257422
    },
    "hours": "24/7",
    "phone": "",
    "description": "Little Free Pantry - Take what you need, leave what you can"
  },
  {
    "name": "Little blessings",
    "type": "food_box",
    "id": "little-pantry-649",
    "address": "Little Blessings, Lafayette Road, Portsmouth, Rockingham County, New Hampshire, 03801, United States",
    "city": "Portsmouth",
    "state": "New Hampshire",
    "coordinates": {
      "lat": 43.048229,
      "lng": -70.7704186
    },
    "hours": "24/7",
    "phone": "",
    "description": "Little Free Pantry - Take what you need, leave what you can"
  },
  {
    "name": "North Presbyterian Church",
    "type": "food_box",
    "id": "little-pantry-661",
    "address": "North Presbyterian Church, East 40th Street, Asiatown, Goodrich-Kirtland Park, Cleveland, Cuyahoga County, Ohio, 44115, United States",
    "city": "Cleveland",
    "state": "Ohio",
    "coordinates": {
      "lat": 41.5142175,
      "lng": -81.6620736
    },
    "hours": "24/7",
    "phone": "",
    "description": "Little Free Pantry - Take what you need, leave what you can"
  },
  {
    "name": "Blue Food",
    "type": "food_box",
    "id": "little-pantry-663",
    "address": "Blue, 1115, Richmond Terrace, Staten Island, Richmond County, City of New York, New York, 10310, United States",
    "city": "City of New York",
    "state": "New York",
    "coordinates": {
      "lat": 40.6453855,
      "lng": -74.1077517
    },
    "hours": "24/7",
    "phone": "",
    "description": "Little Free Pantry - Take what you need, leave what you can"
  },
  {
    "name": "Little Free Pantry - Lee Rd, Cleveland Hts",
    "type": "food_box",
    "id": "little-pantry-665",
    "address": "Lee Road, Fairmount Heights, Cleveland Heights, Cuyahoga County, Ohio, 44137, United States",
    "city": "Cleveland Heights",
    "state": "Ohio",
    "coordinates": {
      "lat": 41.4865642,
      "lng": -81.5650961
    },
    "hours": "24/7",
    "phone": "",
    "description": "Little Free Pantry - Take what you need, leave what you can"
  },
  {
    "name": "Fairwood Community United Methodist Church",
    "type": "food_box",
    "id": "little-pantry-674",
    "address": "Fairwood Community United Methodist, Southeast Fairwood Boulevard, Fairwood Greens, Fairwood, Renton, King County, Washington, 98058, United States",
    "city": "Renton",
    "state": "Washington",
    "coordinates": {
      "lat": 47.4473411,
      "lng": -122.1363674
    },
    "hours": "24/7",
    "phone": "",
    "description": "Little Free Pantry - Take what you need, leave what you can"
  },
  {
    "name": "Grace’s Little Free Pantry - Wautoma",
    "type": "food_box",
    "id": "little-pantry-688",
    "address": "Wautoma, Waushara County, Wisconsin, 54982, United States",
    "city": "Wautoma",
    "state": "Wisconsin",
    "coordinates": {
      "lat": 44.0750502,
      "lng": -89.290193
    },
    "hours": "24/7",
    "phone": "",
    "description": "Little Free Pantry - Take what you need, leave what you can"
  },
  {
    "name": "Plymouth Congregational United Church of Christ",
    "type": "food_box",
    "id": "little-pantry-689",
    "address": "Plymouth Congregational United Church of Christ, 5301, Ward 4, Washington, District of Columbia, 20011, United States",
    "city": "Washington",
    "state": "District of Columbia",
    "coordinates": {
      "lat": 38.955311,
      "lng": -77.0086634
    },
    "hours": "24/7",
    "phone": "",
    "description": "Little Free Pantry - Take what you need, leave what you can"
  },
  {
    "name": "Good Shepherd Lutheran Church",
    "type": "food_box",
    "id": "little-pantry-691",
    "address": "Good Shepherd Lutheran Church, Bismarck, Burleigh County, North Dakota, United States",
    "city": "Bismarck",
    "state": "North Dakota",
    "coordinates": {
      "lat": 46.8233839,
      "lng": -100.7929252
    },
    "hours": "24/7",
    "phone": "",
    "description": "Little Free Pantry - Take what you need, leave what you can"
  },
  {
    "name": "Little free Library",
    "type": "food_box",
    "id": "little-pantry-693",
    "address": "Little Free Library, 87th Street, Brooklyn, Kings County, City of New York, New York, 11209, United States",
    "city": "City of New York",
    "state": "New York",
    "coordinates": {
      "lat": 40.6229074,
      "lng": -74.0324394
    },
    "hours": "24/7",
    "phone": "",
    "description": "Little Free Pantry - Take what you need, leave what you can"
  },
  {
    "name": "Toney Post Office",
    "type": "food_box",
    "id": "little-pantry-704",
    "address": "Toney Post Office, 136, Toney Road, Toney, Madison County, Alabama, 35773, United States",
    "city": "",
    "state": "Alabama",
    "coordinates": {
      "lat": 34.9015605,
      "lng": -86.7146479
    },
    "hours": "24/7",
    "phone": "",
    "description": "Little Free Pantry - Take what you need, leave what you can"
  },
  {
    "name": "Rock of Power Church",
    "type": "food_box",
    "id": "little-pantry-708",
    "address": "Rock of Power Church, 4118, Veterans Drive, Pearland, Brazoria County, Texas, 77584, United States",
    "city": "Pearland",
    "state": "Texas",
    "coordinates": {
      "lat": 29.5289288,
      "lng": -95.2899077
    },
    "hours": "24/7",
    "phone": "",
    "description": "Little Free Pantry - Take what you need, leave what you can"
  },
  {
    "name": "Mini pantry",
    "type": "food_box",
    "id": "little-pantry-714",
    "address": "Attic Pantry Mini Storage, 32950, Boerne, Kendall County, Texas, 78006, United States",
    "city": "Boerne",
    "state": "Texas",
    "coordinates": {
      "lat": 29.7651889,
      "lng": -98.7151287
    },
    "hours": "24/7",
    "phone": "",
    "description": "Little Free Pantry - Take what you need, leave what you can"
  },
  {
    "name": "St. Stephen's Episcopal Church",
    "type": "food_box",
    "id": "little-pantry-728",
    "address": "Saint Stephen's Episcopal Church, 19, South 10th Street, Washington Square West, Center City, Philadelphia, Philadelphia County, Pennsylvania, 19107, United States",
    "city": "Philadelphia",
    "state": "Pennsylvania",
    "coordinates": {
      "lat": 39.9508543,
      "lng": -75.1565652
    },
    "hours": "24/7",
    "phone": "",
    "description": "Little Free Pantry - Take what you need, leave what you can"
  },
  {
    "name": "St. Paul",
    "type": "food_box",
    "id": "little-pantry-731",
    "address": "Saint Paul, Ramsey County, Minnesota, United States",
    "city": "Saint Paul",
    "state": "Minnesota",
    "coordinates": {
      "lat": 44.9497487,
      "lng": -93.0931028
    },
    "hours": "24/7",
    "phone": "",
    "description": "Little Free Pantry - Take what you need, leave what you can"
  },
  {
    "name": "Butler Area Public Library",
    "type": "food_box",
    "id": "little-pantry-732",
    "address": "Butler Area Public Library, 218, North McKean Street, Butler, Butler County, Pennsylvania, 16001, United States",
    "city": "Butler",
    "state": "Pennsylvania",
    "coordinates": {
      "lat": 40.8629963,
      "lng": -79.8936619
    },
    "hours": "24/7",
    "phone": "",
    "description": "Little Free Pantry - Take what you need, leave what you can"
  },
  {
    "name": "Sprout Garden",
    "type": "food_box",
    "id": "little-pantry-747",
    "address": "Sprout Garden, Harris Drive Extension, New London, Southeastern Connecticut Planning Region, Connecticut, 06349, United States",
    "city": "New London",
    "state": "Connecticut",
    "coordinates": {
      "lat": 41.381232,
      "lng": -72.1081581
    },
    "hours": "24/7",
    "phone": "",
    "description": "Little Free Pantry - Take what you need, leave what you can"
  },
  {
    "name": "New Dora Baptist Church",
    "type": "food_box",
    "id": "little-pantry-749",
    "address": "New Dora Missionary Baptist Church, 4301, North Market Street, The Ville, Saint Louis, Missouri, 63113, United States",
    "city": "Saint Louis",
    "state": "Missouri",
    "coordinates": {
      "lat": 38.6591885,
      "lng": -90.2411177
    },
    "hours": "24/7",
    "phone": "",
    "description": "Little Free Pantry - Take what you need, leave what you can"
  },
  {
    "name": "Arthur St",
    "type": "food_box",
    "id": "little-pantry-760",
    "address": "Arthur St, Vincent, Newark Township, Webster County, Iowa, 50594, United States",
    "city": "Vincent",
    "state": "Iowa",
    "coordinates": {
      "lat": 42.5912755,
      "lng": -94.021146
    },
    "hours": "24/7",
    "phone": "",
    "description": "Little Free Pantry - Take what you need, leave what you can"
  },
  {
    "name": "Lutheran Church of the Redeemer",
    "type": "food_box",
    "id": "little-pantry-764",
    "address": "Lutheran Church of the Redeemer, Seaholm, Birmingham, Oakland County, Michigan, United States",
    "city": "Birmingham",
    "state": "Michigan",
    "coordinates": {
      "lat": 42.5465341,
      "lng": -83.2374694
    },
    "hours": "24/7",
    "phone": "",
    "description": "Little Free Pantry - Take what you need, leave what you can"
  },
  {
    "name": "Christ Episcopal Church",
    "type": "food_box",
    "id": "little-pantry-765",
    "address": "Christ Episcopal Church, 5, Paterson Street, New Brunswick, Middlesex County, New Jersey, 08901, United States",
    "city": "New Brunswick",
    "state": "New Jersey",
    "coordinates": {
      "lat": 40.4958906,
      "lng": -74.4425916
    },
    "hours": "24/7",
    "phone": "",
    "description": "Little Free Pantry - Take what you need, leave what you can"
  },
  {
    "name": "Village Cohousing Community",
    "type": "food_box",
    "id": "little-pantry-772",
    "address": "Village Cohousing Community, 1112, Mound Street, Greenbush, Oakland Heights, Bowens Addition, Madison, Dane County, Wisconsin, 53706, United States",
    "city": "Madison",
    "state": "Wisconsin",
    "coordinates": {
      "lat": 43.065583,
      "lng": -89.4047738
    },
    "hours": "24/7",
    "phone": "",
    "description": "Little Free Pantry - Take what you need, leave what you can"
  },
  {
    "name": "Free Little Pantry - Firehouse Grille Restaurant",
    "type": "food_box",
    "id": "little-pantry-773",
    "address": "Firehouse Grille, 7875, Old Town Road, New Market, Elko New Market, Scott County, Minnesota, 55054, United States",
    "city": "Elko New Market",
    "state": "Minnesota",
    "coordinates": {
      "lat": 44.5736002,
      "lng": -93.3613609
    },
    "hours": "24/7",
    "phone": "",
    "description": "Little Free Pantry - Take what you need, leave what you can"
  },
  {
    "name": "Bear Creek Baptist Church",
    "type": "food_box",
    "id": "little-pantry-777",
    "address": "Bear Creek Baptist Church, Hampton Road, Glenn Heights, Oak Leaf, Ellis County, Texas, 76167, United States",
    "city": "Oak Leaf",
    "state": "Texas",
    "coordinates": {
      "lat": 32.5262486,
      "lng": -96.8586109
    },
    "hours": "24/7",
    "phone": "",
    "description": "Little Free Pantry - Take what you need, leave what you can"
  },
  {
    "name": "Beaverton Baha'i Center",
    "type": "food_box",
    "id": "little-pantry-781",
    "address": "Beaverton Baha’i Center, 5355, Southwest Murray Boulevard, West Beaverton, Beaverton, Washington County, Oregon, 97005, United States",
    "city": "Beaverton",
    "state": "Oregon",
    "coordinates": {
      "lat": 45.4804963,
      "lng": -122.8264955
    },
    "hours": "24/7",
    "phone": "",
    "description": "Little Free Pantry - Take what you need, leave what you can"
  },
  {
    "name": "Highland Free Pantry",
    "type": "food_box",
    "id": "little-pantry-782",
    "address": "Micro Pantry: Jordan Boys and Girls Club / Highland Park, 30, Willow Street, Bellingham Hill, Chelsea, Suffolk County, Massachusetts, 02150, United States",
    "city": "Chelsea",
    "state": "Massachusetts",
    "coordinates": {
      "lat": 42.3874758,
      "lng": -71.0272612
    },
    "hours": "24/7",
    "phone": "",
    "description": "Little Free Pantry - Take what you need, leave what you can"
  },
  {
    "name": "Hummingbird Hood",
    "type": "food_box",
    "id": "little-pantry-795",
    "address": "Hummingbird Court, Hood County, Texas, 76049, United States",
    "city": "",
    "state": "Texas",
    "coordinates": {
      "lat": 32.4272774,
      "lng": -97.7109352
    },
    "hours": "24/7",
    "phone": "",
    "description": "Little Free Pantry - Take what you need, leave what you can"
  },
  {
    "name": "Midway Baptist Church",
    "type": "food_box",
    "id": "little-pantry-796",
    "address": "Midway Baptist Church, Polk County, North Carolina, United States",
    "city": "",
    "state": "North Carolina",
    "coordinates": {
      "lat": 35.271772,
      "lng": -82.1834679
    },
    "hours": "24/7",
    "phone": "",
    "description": "Little Free Pantry - Take what you need, leave what you can"
  },
  {
    "name": "Southside Baptist church",
    "type": "food_box",
    "id": "little-pantry-799",
    "address": "Southside Baptist Church, 415, Allendale, Brandon, Hillsborough County, Florida, 33511, United States",
    "city": "Brandon",
    "state": "Florida",
    "coordinates": {
      "lat": 27.9222694,
      "lng": -82.2909733
    },
    "hours": "24/7",
    "phone": "",
    "description": "Little Free Pantry - Take what you need, leave what you can"
  },
  {
    "name": "3520 N milton street",
    "type": "food_box",
    "id": "little-pantry-803",
    "address": "3520, North Milton Street, Audubon / Downriver, Spokane, Spokane County, Washington, 99205, United States",
    "city": "Spokane",
    "state": "Washington",
    "coordinates": {
      "lat": 47.6901201,
      "lng": -117.4523607
    },
    "hours": "24/7",
    "phone": "",
    "description": "Little Free Pantry - Take what you need, leave what you can"
  },
  {
    "name": "Unitarian Universalist Church of Annapolis",
    "type": "food_box",
    "id": "little-pantry-807",
    "address": "Unitarian Universalist Church of Annapolis, 333, Dubois Road, The Village, Annapolis, Anne Arundel County, Maryland, 21401, United States",
    "city": "Annapolis",
    "state": "Maryland",
    "coordinates": {
      "lat": 38.9989529,
      "lng": -76.5239213
    },
    "hours": "24/7",
    "phone": "",
    "description": "Little Free Pantry - Take what you need, leave what you can"
  },
  {
    "name": "Saint Lukes Episcopal church",
    "type": "food_box",
    "id": "little-pantry-844",
    "address": "Saint Lukes Episcopal Church, 850, Wolcott Avenue, City of Beacon, Dutchess County, New York, 12508, United States",
    "city": "City of Beacon",
    "state": "New York",
    "coordinates": {
      "lat": 41.4974976,
      "lng": -73.9634743
    },
    "hours": "24/7",
    "phone": "",
    "description": "Little Free Pantry - Take what you need, leave what you can"
  },
  {
    "name": "Bread of Life",
    "type": "food_box",
    "id": "little-pantry-856",
    "address": "Bread of Life, 34460, Darwin Drive, Fremont, Alameda County, California, 94555, United States",
    "city": "Fremont",
    "state": "California",
    "coordinates": {
      "lat": 37.5750564,
      "lng": -122.0389957
    },
    "hours": "24/7",
    "phone": "",
    "description": "Little Free Pantry - Take what you need, leave what you can"
  },
  {
    "name": "Mars Hill United Methodist Church",
    "type": "food_box",
    "id": "little-pantry-863",
    "address": "Mars Hill United Methodist Church, Main Street, Mars Hill, Aroostook County, Maine, 04758, United States",
    "city": "Mars Hill",
    "state": "Maine",
    "coordinates": {
      "lat": 46.5122475,
      "lng": -67.8680339
    },
    "hours": "24/7",
    "phone": "",
    "description": "Little Free Pantry - Take what you need, leave what you can"
  },
  {
    "name": "Spring Creek Baptist Church",
    "type": "food_box",
    "id": "little-pantry-874",
    "address": "Spring Creek Baptist Church, Lavon Drive, Garland, Dallas County, Texas, 75040, United States",
    "city": "Garland",
    "state": "Texas",
    "coordinates": {
      "lat": 32.9430849,
      "lng": -96.6215662
    },
    "hours": "24/7",
    "phone": "",
    "description": "Little Free Pantry - Take what you need, leave what you can"
  },
  {
    "name": "Christway Christian Church",
    "type": "food_box",
    "id": "little-pantry-876",
    "address": "Christway Christian Church of God Inc, Hillcrest Drive, Hillcrest, Hoke County, North Carolina, 28376, United States",
    "city": "",
    "state": "North Carolina",
    "coordinates": {
      "lat": 34.9930581,
      "lng": -79.1881248
    },
    "hours": "24/7",
    "phone": "",
    "description": "Little Free Pantry - Take what you need, leave what you can"
  },
  {
    "name": "ZION LUTHERAN CHURCH",
    "type": "food_box",
    "id": "little-pantry-887",
    "address": "Zion Lutheran Church, 140, North Gay Street, Downtown, Baltimore, Maryland, 21202, United States",
    "city": "Baltimore",
    "state": "Maryland",
    "coordinates": {
      "lat": 39.2916399,
      "lng": -76.6095364
    },
    "hours": "24/7",
    "phone": "",
    "description": "Little Free Pantry - Take what you need, leave what you can"
  },
  {
    "name": "Matteson Public Library",
    "type": "food_box",
    "id": "little-pantry-890",
    "address": "Matteson Public Library, 801, School Avenue, Matteson, Rich Township, Cook County, Illinois, 60443, United States",
    "city": "Matteson",
    "state": "Illinois",
    "coordinates": {
      "lat": 41.5127148,
      "lng": -87.7250888
    },
    "hours": "24/7",
    "phone": "",
    "description": "Little Free Pantry - Take what you need, leave what you can"
  },
  {
    "name": "Emmanuel Lutheran Church, Vienna, VA",
    "type": "food_box",
    "id": "little-pantry-899",
    "address": "Vienna, Fairfax County, Virginia, United States",
    "city": "Vienna",
    "state": "Virginia",
    "coordinates": {
      "lat": 38.9013729,
      "lng": -77.2651762
    },
    "hours": "24/7",
    "phone": "",
    "description": "Little Free Pantry - Take what you need, leave what you can"
  },
  {
    "name": "Solomons Mission Center",
    "type": "food_box",
    "id": "little-pantry-904",
    "address": "Solomons Mission Center, South Solomons Island Road, Johnstown, Solomons, Calvert County, Maryland, 20688, United States",
    "city": "Solomons",
    "state": "Maryland",
    "coordinates": {
      "lat": 38.323232,
      "lng": -76.459883
    },
    "hours": "24/7",
    "phone": "",
    "description": "Little Free Pantry - Take what you need, leave what you can"
  },
  {
    "name": "St. Luke's Lutheran Church",
    "type": "food_box",
    "id": "little-pantry-908",
    "address": "St. Luke's Church, 308, West 46th Street, Manhattan Community Board 4, Manhattan, New York County, City of New York, New York, 10036, United States",
    "city": "City of New York",
    "state": "New York",
    "coordinates": {
      "lat": 40.7598671,
      "lng": -73.9886905
    },
    "hours": "24/7",
    "phone": "",
    "description": "Little Free Pantry - Take what you need, leave what you can"
  },
  {
    "name": "Bryan Street",
    "type": "food_box",
    "id": "little-pantry-917",
    "address": "Bryan Street, Staten Island, Richmond County, City of New York, New York, 10307, United States",
    "city": "City of New York",
    "state": "New York",
    "coordinates": {
      "lat": 40.5063298,
      "lng": -74.2516048
    },
    "hours": "24/7",
    "phone": "",
    "description": "Little Free Pantry - Take what you need, leave what you can"
  },
  {
    "name": "Little Free Pantry - Central Plano",
    "type": "food_box",
    "id": "little-pantry-918",
    "address": "Hobbytown USA, 3303, Central Expressway, Plano, Collin County, Texas, 75023, United States",
    "city": "Plano",
    "state": "Texas",
    "coordinates": {
      "lat": 33.0397275,
      "lng": -96.7046281
    },
    "hours": "24/7",
    "phone": "",
    "description": "Little Free Pantry - Take what you need, leave what you can"
  },
  {
    "name": "christview christian church",
    "type": "food_box",
    "id": "little-pantry-919",
    "address": "Christview Christian Church, East 25th Street, Worthington Townhouses, Tulsa, Tulsa County, Oklahoma, 74129, United States",
    "city": "Tulsa",
    "state": "Oklahoma",
    "coordinates": {
      "lat": 36.1275216,
      "lng": -95.8498843
    },
    "hours": "24/7",
    "phone": "",
    "description": "Little Free Pantry - Take what you need, leave what you can"
  },
  {
    "name": "Roswell Firelabs",
    "type": "food_box",
    "id": "little-pantry-920",
    "address": "Roswell Firelabs, 1601, Holcomb Bridge Road, Roswell, Fulton County, Georgia, 30076, United States",
    "city": "Roswell",
    "state": "Georgia",
    "coordinates": {
      "lat": 34.0183911,
      "lng": -84.314081
    },
    "hours": "24/7",
    "phone": "",
    "description": "Little Free Pantry - Take what you need, leave what you can"
  },
  {
    "name": "New Birth Baptist Church",
    "type": "food_box",
    "id": "little-pantry-935",
    "address": "New Birth Baptist Church, Inkster, Wayne County, Michigan, United States",
    "city": "Inkster",
    "state": "Michigan",
    "coordinates": {
      "lat": 42.3046937,
      "lng": -83.3141041
    },
    "hours": "24/7",
    "phone": "",
    "description": "Little Free Pantry - Take what you need, leave what you can"
  },
  {
    "name": "First United Methodist Church",
    "type": "food_box",
    "id": "little-pantry-939",
    "address": "First United Methodist Church, Church Street, Highland Park, Wayne County, Michigan, 48203, United States",
    "city": "Highland Park",
    "state": "Michigan",
    "coordinates": {
      "lat": 42.4151765,
      "lng": -83.1029675
    },
    "hours": "24/7",
    "phone": "",
    "description": "Little Free Pantry - Take what you need, leave what you can"
  },
  {
    "name": "Carbondale Library",
    "type": "food_box",
    "id": "little-pantry-940",
    "address": "Carbondale Public Library, 405, West Main Street, Carbondale, Jackson County, Illinois, 62901, United States",
    "city": "Carbondale",
    "state": "Illinois",
    "coordinates": {
      "lat": 37.7265691,
      "lng": -89.2206216
    },
    "hours": "24/7",
    "phone": "",
    "description": "Little Free Pantry - Take what you need, leave what you can"
  },
  {
    "name": "Lutheran Church Pantry",
    "type": "food_box",
    "id": "little-pantry-944",
    "address": "Faith Lutheran Church Food Pantry, Catalina Drive, Alameda County, California, 94546, United States",
    "city": "",
    "state": "California",
    "coordinates": {
      "lat": 37.6993783,
      "lng": -122.0724281
    },
    "hours": "24/7",
    "phone": "",
    "description": "Little Free Pantry - Take what you need, leave what you can"
  },
  {
    "name": "Free Shed",
    "type": "food_box",
    "id": "little-pantry-958",
    "address": "Free Donation Shed, Yew Avenue Northeast, Olympia, Thurston County, Washington, 98504, United States",
    "city": "Olympia",
    "state": "Washington",
    "coordinates": {
      "lat": 47.051399,
      "lng": -122.8797719
    },
    "hours": "24/7",
    "phone": "",
    "description": "Little Free Pantry - Take what you need, leave what you can"
  },
  {
    "name": "Pop-up Pantry - Delaware",
    "type": "food_box",
    "id": "little-pantry-963",
    "address": "Delaware, United States",
    "city": "",
    "state": "Delaware",
    "coordinates": {
      "lat": 38.6920451,
      "lng": -75.4013315
    },
    "hours": "24/7",
    "phone": "",
    "description": "Little Free Pantry - Take what you need, leave what you can"
  },
  {
    "name": "Risen Saviour Bible Church",
    "type": "food_box",
    "id": "little-pantry-964",
    "address": "Risen Saviour Bible Church Parking, US 50, Oakdale, Jennings County, Indiana, United States",
    "city": "",
    "state": "Indiana",
    "coordinates": {
      "lat": 39.0203122,
      "lng": -85.5577542
    },
    "hours": "24/7",
    "phone": "",
    "description": "Little Free Pantry - Take what you need, leave what you can"
  },
  {
    "name": "Little Food Pantry - Bloomingdale Church",
    "type": "food_box",
    "id": "little-pantry-970",
    "address": "Bloomingdale Church, East Bloomingdale Avenue, Bloomingdale, Hillsborough County, Florida, 33596, United States",
    "city": "Bloomingdale",
    "state": "Florida",
    "coordinates": {
      "lat": 27.8933583,
      "lng": -82.2553686
    },
    "hours": "24/7",
    "phone": "",
    "description": "Little Free Pantry - Take what you need, leave what you can"
  },
  {
    "name": "JK❤️Family Farm",
    "type": "food_box",
    "id": "little-pantry-973",
    "address": "Family Farm, Plano, Collin County, Texas, 75024, United States",
    "city": "Plano",
    "state": "Texas",
    "coordinates": {
      "lat": 33.0783751,
      "lng": -96.789958
    },
    "hours": "24/7",
    "phone": "",
    "description": "Little Free Pantry - Take what you need, leave what you can"
  },
  {
    "name": "Fords VFW 6090",
    "type": "food_box",
    "id": "little-pantry-980",
    "address": "Fords, Woodbridge Township, Middlesex County, New Jersey, 08863, United States",
    "city": "Woodbridge Township",
    "state": "New Jersey",
    "coordinates": {
      "lat": 40.5292133,
      "lng": -74.3161043
    },
    "hours": "24/7",
    "phone": "",
    "description": "Little Free Pantry - Take what you need, leave what you can"
  },
  {
    "name": "Little Free Pantry - Quinton",
    "type": "food_box",
    "id": "little-pantry-990",
    "address": "Quinton Township, Salem County, New Jersey, 08072, United States",
    "city": "Quinton Township",
    "state": "New Jersey",
    "coordinates": {
      "lat": 39.5459466,
      "lng": -75.4124178
    },
    "hours": "24/7",
    "phone": "",
    "description": "Little Free Pantry - Take what you need, leave what you can"
  },
  {
    "name": "Clarence",
    "type": "food_box",
    "id": "little-pantry-1009",
    "address": "Clarence, Cedar County, Iowa, United States",
    "city": "Clarence",
    "state": "Iowa",
    "coordinates": {
      "lat": 41.8881899,
      "lng": -91.0558524
    },
    "hours": "24/7",
    "phone": "",
    "description": "Little Free Pantry - Take what you need, leave what you can"
  },
  {
    "name": "Jon's Home",
    "type": "food_box",
    "id": "little-pantry-1017",
    "address": "Jon Cross Drive, Warwick Mobile Home Estates, Oyster Point, Newport News, Virginia, 23606, United States",
    "city": "Newport News",
    "state": "Virginia",
    "coordinates": {
      "lat": 37.0943372,
      "lng": -76.4948657
    },
    "hours": "24/7",
    "phone": "",
    "description": "Little Free Pantry - Take what you need, leave what you can"
  },
  {
    "name": "Church of Our Saviour",
    "type": "food_box",
    "id": "little-pantry-1018",
    "address": "Church of Our Saviour, 59, Park Avenue, Murray Hill, Manhattan Community Board 6, Manhattan, New York County, City of New York, New York, 10016, United States",
    "city": "City of New York",
    "state": "New York",
    "coordinates": {
      "lat": 40.7492576,
      "lng": -73.979234
    },
    "hours": "24/7",
    "phone": "",
    "description": "Little Free Pantry - Take what you need, leave what you can"
  },
  {
    "name": "Mini Pantry",
    "type": "food_box",
    "id": "little-pantry-1022",
    "address": "Attic Pantry Mini Storage, 32950, Boerne, Kendall County, Texas, 78006, United States",
    "city": "Boerne",
    "state": "Texas",
    "coordinates": {
      "lat": 29.7651889,
      "lng": -98.7151287
    },
    "hours": "24/7",
    "phone": "",
    "description": "Little Free Pantry - Take what you need, leave what you can"
  },
  {
    "name": "Faith United Lutheran Church",
    "type": "food_box",
    "id": "little-pantry-1034",
    "address": "United by Faith Lutheran Church, 97th Place, Evergreen Park, Worth Township, Cook County, Illinois, 60805, United States",
    "city": "Evergreen Park",
    "state": "Illinois",
    "coordinates": {
      "lat": 41.7158076,
      "lng": -87.7034248
    },
    "hours": "24/7",
    "phone": "",
    "description": "Little Free Pantry - Take what you need, leave what you can"
  },
  {
    "name": "Wesley United Methodist Church, Yakima, WA",
    "type": "food_box",
    "id": "little-pantry-1052",
    "address": "Yakima, Yakima County, Washington, United States",
    "city": "Yakima",
    "state": "Washington",
    "coordinates": {
      "lat": 46.601557,
      "lng": -120.510842
    },
    "hours": "24/7",
    "phone": "",
    "description": "Little Free Pantry - Take what you need, leave what you can"
  },
  {
    "name": "Brookdale neighborhood",
    "type": "food_box",
    "id": "little-pantry-1069",
    "address": "Brookdale Neighborhood Park, Westbard, Friendship Heights Village, Montgomery County, Maryland, United States",
    "city": "Friendship Heights Village",
    "state": "Maryland",
    "coordinates": {
      "lat": 38.960838,
      "lng": -77.0916151
    },
    "hours": "24/7",
    "phone": "",
    "description": "Little Free Pantry - Take what you need, leave what you can"
  },
  {
    "name": "The Little Food Bank in the Park - Yarrow",
    "type": "food_box",
    "id": "little-pantry-1071",
    "address": "Yarrow, Adair County, Missouri, United States",
    "city": "",
    "state": "Missouri",
    "coordinates": {
      "lat": 40.0939194,
      "lng": -92.6804727
    },
    "hours": "24/7",
    "phone": "",
    "description": "Little Free Pantry - Take what you need, leave what you can"
  },
  {
    "name": "Skipwith Baptist Church",
    "type": "food_box",
    "id": "little-pantry-1072",
    "address": "Skipwith Baptist Church, 1900, Skipwith Road, Tuckahoe, Henrico County, Virginia, 23226, United States",
    "city": "Tuckahoe",
    "state": "Virginia",
    "coordinates": {
      "lat": 37.6088029,
      "lng": -77.5388215
    },
    "hours": "24/7",
    "phone": "",
    "description": "Little Free Pantry - Take what you need, leave what you can"
  },
  {
    "name": "Crosswalk Church",
    "type": "food_box",
    "id": "little-pantry-1088",
    "address": "Crosswalk Church, 1016, Clearwater Road, Daytona Beach, Volusia County, Florida, 32114, United States",
    "city": "Daytona Beach",
    "state": "Florida",
    "coordinates": {
      "lat": 29.1809711,
      "lng": -81.0302768
    },
    "hours": "24/7",
    "phone": "",
    "description": "Little Free Pantry - Take what you need, leave what you can"
  },
  {
    "name": "Unitarian Universalist Fellowship of Bay County",
    "type": "food_box",
    "id": "little-pantry-1089",
    "address": "Unitarian Universalist Fellowship of Bay County, 1410, Airport Road, Panama City, Bay County, Florida, 32405, United States",
    "city": "Panama City",
    "state": "Florida",
    "coordinates": {
      "lat": 30.1927289,
      "lng": -85.6839703
    },
    "hours": "24/7",
    "phone": "",
    "description": "Little Free Pantry - Take what you need, leave what you can"
  },
  {
    "name": "The Journey Galena - Little Food Pantry",
    "type": "food_box",
    "id": "little-pantry-1090",
    "address": "Little Food Pantry, Creekview Lane North, Brooklyn Park, Hennepin County, Minnesota, 55443, United States",
    "city": "Brooklyn Park",
    "state": "Minnesota",
    "coordinates": {
      "lat": 45.1116661,
      "lng": -93.3568238
    },
    "hours": "24/7",
    "phone": "",
    "description": "Little Free Pantry - Take what you need, leave what you can"
  },
  {
    "name": "Grace's Kitchen",
    "type": "food_box",
    "id": "little-pantry-1094",
    "address": "Grace's Kitchen, 127th Street, Point Place, Toledo, Lucas County, Ohio, 43611, United States",
    "city": "Toledo",
    "state": "Ohio",
    "coordinates": {
      "lat": 41.7176355,
      "lng": -83.4796966
    },
    "hours": "24/7",
    "phone": "",
    "description": "Little Free Pantry - Take what you need, leave what you can"
  },
  {
    "name": "Middleville MI",
    "type": "food_box",
    "id": "little-pantry-1098",
    "address": "Middleville, Barry County, Michigan, United States",
    "city": "Middleville",
    "state": "Michigan",
    "coordinates": {
      "lat": 42.7130889,
      "lng": -85.4619599
    },
    "hours": "24/7",
    "phone": "",
    "description": "Little Free Pantry - Take what you need, leave what you can"
  },
  {
    "name": "First United Church Of Christ",
    "type": "food_box",
    "id": "little-pantry-1102",
    "address": "First United Church of Christ, Madison Avenue, City of Elmira, Chemung County, New York, 14901, United States",
    "city": "City of Elmira",
    "state": "New York",
    "coordinates": {
      "lat": 42.0902778,
      "lng": -76.7983333
    },
    "hours": "24/7",
    "phone": "",
    "description": "Little Free Pantry - Take what you need, leave what you can"
  },
  {
    "name": "Hunter Chapel",
    "type": "food_box",
    "id": "little-pantry-1103",
    "address": "Hunter Chapel, Green Dolphin Lane, Cornelius, Mecklenburg County, North Carolina, 28031, United States",
    "city": "Cornelius",
    "state": "North Carolina",
    "coordinates": {
      "lat": 35.4651361,
      "lng": -80.9245191
    },
    "hours": "24/7",
    "phone": "",
    "description": "Little Free Pantry - Take what you need, leave what you can"
  },
  {
    "name": "West Walnut St",
    "type": "food_box",
    "id": "little-pantry-1109",
    "address": "West Walnut Street, Carson, Los Angeles County, California, 90248, United States",
    "city": "Carson",
    "state": "California",
    "coordinates": {
      "lat": 33.8745384,
      "lng": -118.2797305
    },
    "hours": "24/7",
    "phone": "",
    "description": "Little Free Pantry - Take what you need, leave what you can"
  },
  {
    "name": "Tampico Baptist",
    "type": "food_box",
    "id": "little-pantry-1110",
    "address": "Tampico Baptist, East Market Street, Tampico, Whiteside County, Illinois, 61283, United States",
    "city": "Tampico",
    "state": "Illinois",
    "coordinates": {
      "lat": 41.6316417,
      "lng": -89.7817474
    },
    "hours": "24/7",
    "phone": "",
    "description": "Little Free Pantry - Take what you need, leave what you can"
  },
  {
    "name": "Hamilton Township",
    "type": "food_box",
    "id": "little-pantry-1111",
    "address": "Hamilton Township, Mercer County, New Jersey, United States",
    "city": "Hamilton Township",
    "state": "New Jersey",
    "coordinates": {
      "lat": 40.2113211,
      "lng": -74.6858335
    },
    "hours": "24/7",
    "phone": "",
    "description": "Little Free Pantry - Take what you need, leave what you can"
  },
  {
    "name": "Human Services",
    "type": "food_box",
    "id": "little-pantry-1112",
    "address": "Human Services, West Elliott Drive, Spokane, Spokane County, Washington, 99205, United States",
    "city": "Spokane",
    "state": "Washington",
    "coordinates": {
      "lat": 47.6770523,
      "lng": -117.4658771
    },
    "hours": "24/7",
    "phone": "",
    "description": "Little Free Pantry - Take what you need, leave what you can"
  },
  {
    "name": "Boys & Girls Club",
    "type": "food_box",
    "id": "little-pantry-1113",
    "address": "Boys & Girls Club, Milledgeville, Baldwin County, Georgia, United States",
    "city": "Milledgeville",
    "state": "Georgia",
    "coordinates": {
      "lat": 33.0842545,
      "lng": -83.2467324
    },
    "hours": "24/7",
    "phone": "",
    "description": "Little Free Pantry - Take what you need, leave what you can"
  },
  {
    "name": "Good Samaritan Box",
    "type": "food_box",
    "id": "little-pantry-1114",
    "address": "Good Samaritan Village, 1016, East 6th Street, Tower Plaza Mobile Home Park, Alliance, Box Butte County, Nebraska, 69301, United States",
    "city": "Alliance",
    "state": "Nebraska",
    "coordinates": {
      "lat": 42.1005787,
      "lng": -102.8572805
    },
    "hours": "24/7",
    "phone": "",
    "description": "Little Free Pantry - Take what you need, leave what you can"
  },
  {
    "name": "Bard Street Park",
    "type": "food_box",
    "id": "little-pantry-1118",
    "address": "Bard High School Early College Baltimore, 2801, North Dukeland Street, Hanlon-Longwood, Greater Rosemont, Baltimore, Maryland, 21216, United States",
    "city": "Baltimore",
    "state": "Maryland",
    "coordinates": {
      "lat": 39.3178219,
      "lng": -76.6643135
    },
    "hours": "24/7",
    "phone": "",
    "description": "Little Free Pantry - Take what you need, leave what you can"
  },
  {
    "name": "Veteran's Park",
    "type": "food_box",
    "id": "little-pantry-1120",
    "address": "Veteran's Park, El Paso, El Paso County, Texas, United States",
    "city": "El Paso",
    "state": "Texas",
    "coordinates": {
      "lat": 31.9171264,
      "lng": -106.4159555
    },
    "hours": "24/7",
    "phone": "",
    "description": "Little Free Pantry - Take what you need, leave what you can"
  },
  {
    "name": "Bethany Baptist",
    "type": "food_box",
    "id": "little-pantry-1121",
    "address": "Bethany Baptist, 713, South Hill Park Drive, Puyallup, Pierce County, Washington, 98373, United States",
    "city": "Puyallup",
    "state": "Washington",
    "coordinates": {
      "lat": 47.1613234,
      "lng": -122.3024512
    },
    "hours": "24/7",
    "phone": "",
    "description": "Little Free Pantry - Take what you need, leave what you can"
  },
  {
    "name": "Sanders Market",
    "type": "food_box",
    "id": "little-pantry-1126",
    "address": "Sanders Market, 25451, Military Road, Cascade, Highfield Cascade, Washington County, Maryland, 21719, United States",
    "city": "",
    "state": "Maryland",
    "coordinates": {
      "lat": 39.7142539,
      "lng": -77.480481
    },
    "hours": "24/7",
    "phone": "",
    "description": "Little Free Pantry - Take what you need, leave what you can"
  },
  {
    "name": "Wilson Chapel",
    "type": "food_box",
    "id": "little-pantry-1127",
    "address": "Wilson Chapel, Old Gentilly Road, New Orleans, Orleans Parish, Louisiana, 70127, United States",
    "city": "New Orleans",
    "state": "Louisiana",
    "coordinates": {
      "lat": 30.0149238,
      "lng": -89.9664573
    },
    "hours": "24/7",
    "phone": "",
    "description": "Little Free Pantry - Take what you need, leave what you can"
  },
  {
    "name": "St. Mary's Catholic Church",
    "type": "food_box",
    "id": "little-pantry-1129",
    "address": "Saint Mary's Catholic Church, 15, Saint Mary's Place, Washington Square, City of Rochester, Monroe County, New York, 14607, United States",
    "city": "City of Rochester",
    "state": "New York",
    "coordinates": {
      "lat": 43.1532543,
      "lng": -77.6060634
    },
    "hours": "24/7",
    "phone": "",
    "description": "Little Free Pantry - Take what you need, leave what you can"
  },
  {
    "name": "Paris Crossing",
    "type": "food_box",
    "id": "little-pantry-1131",
    "address": "Paris Crossing, Jennings County, Indiana, 47227, United States",
    "city": "",
    "state": "Indiana",
    "coordinates": {
      "lat": 38.829501,
      "lng": -85.6480215
    },
    "hours": "24/7",
    "phone": "",
    "description": "Little Free Pantry - Take what you need, leave what you can"
  },
  {
    "name": "Butlerville Grocery",
    "type": "food_box",
    "id": "little-pantry-1135",
    "address": "Butlerville Grocery, US 50, Oakdale, Jennings County, Indiana, 47223, United States",
    "city": "",
    "state": "Indiana",
    "coordinates": {
      "lat": 39.032426,
      "lng": -85.516076
    },
    "hours": "24/7",
    "phone": "",
    "description": "Little Free Pantry - Take what you need, leave what you can"
  },
  {
    "name": "St Paul's United Church",
    "type": "food_box",
    "id": "little-pantry-1136",
    "address": "Saint Paul's United Church, West 23rd Avenue, Lakewood, Jefferson County, Colorado, 80214, United States",
    "city": "Lakewood",
    "state": "Colorado",
    "coordinates": {
      "lat": 39.7516335,
      "lng": -105.086681
    },
    "hours": "24/7",
    "phone": "",
    "description": "Little Free Pantry - Take what you need, leave what you can"
  },
  {
    "name": "Trinity Church",
    "type": "food_box",
    "id": "little-pantry-1139",
    "address": "Trinity Church, Broadway, Financial District, Lower Manhattan, Manhattan, New York County, City of New York, New York, 10006, United States",
    "city": "City of New York",
    "state": "New York",
    "coordinates": {
      "lat": 40.708053,
      "lng": -74.0122067
    },
    "hours": "24/7",
    "phone": "",
    "description": "Little Free Pantry - Take what you need, leave what you can"
  },
  {
    "name": "People First Pantry - West Fargo",
    "type": "food_box",
    "id": "little-pantry-1147",
    "address": "West Fargo, Cass County, North Dakota, 58078, United States",
    "city": "West Fargo",
    "state": "North Dakota",
    "coordinates": {
      "lat": 46.874967,
      "lng": -96.900362
    },
    "hours": "24/7",
    "phone": "",
    "description": "Little Free Pantry - Take what you need, leave what you can"
  },
  {
    "name": "People First Pantry - Walhalla",
    "type": "food_box",
    "id": "little-pantry-1148",
    "address": "Walhalla, Pembina County, North Dakota, United States",
    "city": "Walhalla",
    "state": "North Dakota",
    "coordinates": {
      "lat": 48.923328,
      "lng": -97.918148
    },
    "hours": "24/7",
    "phone": "",
    "description": "Little Free Pantry - Take what you need, leave what you can"
  },
  {
    "name": "People First Pantry - Steele",
    "type": "food_box",
    "id": "little-pantry-1149",
    "address": "Steele County, Minnesota, United States",
    "city": "",
    "state": "Minnesota",
    "coordinates": {
      "lat": 44.0137336,
      "lng": -93.2203671
    },
    "hours": "24/7",
    "phone": "",
    "description": "Little Free Pantry - Take what you need, leave what you can"
  },
  {
    "name": "People First Pantry - Moorhead",
    "type": "food_box",
    "id": "little-pantry-1150",
    "address": "Moorhead, Clay County, Minnesota, United States",
    "city": "Moorhead",
    "state": "Minnesota",
    "coordinates": {
      "lat": 46.8739081,
      "lng": -96.7538674
    },
    "hours": "24/7",
    "phone": "",
    "description": "Little Free Pantry - Take what you need, leave what you can"
  },
  {
    "name": "People First Pantry - Minneapolis",
    "type": "food_box",
    "id": "little-pantry-1151",
    "address": "Minneapolis, Hennepin County, Minnesota, United States",
    "city": "Minneapolis",
    "state": "Minnesota",
    "coordinates": {
      "lat": 44.9772995,
      "lng": -93.2654692
    },
    "hours": "24/7",
    "phone": "",
    "description": "Little Free Pantry - Take what you need, leave what you can"
  },
  {
    "name": "People First Pantry - Grand Forks",
    "type": "food_box",
    "id": "little-pantry-1152",
    "address": "Grand Forks, Grand Forks County, North Dakota, United States",
    "city": "Grand Forks",
    "state": "North Dakota",
    "coordinates": {
      "lat": 47.9252104,
      "lng": -97.0306325
    },
    "hours": "24/7",
    "phone": "",
    "description": "Little Free Pantry - Take what you need, leave what you can"
  },
  {
    "name": "People First Pantry - Grafton",
    "type": "food_box",
    "id": "little-pantry-1153",
    "address": "Grafton County, New Hampshire, United States",
    "city": "",
    "state": "New Hampshire",
    "coordinates": {
      "lat": 43.9702453,
      "lng": -71.8742626
    },
    "hours": "24/7",
    "phone": "",
    "description": "Little Free Pantry - Take what you need, leave what you can"
  },
  {
    "name": "People First Pantry - Eagan",
    "type": "food_box",
    "id": "little-pantry-1154",
    "address": "Eagan, Dakota County, Minnesota, United States",
    "city": "Eagan",
    "state": "Minnesota",
    "coordinates": {
      "lat": 44.818173,
      "lng": -93.1659179
    },
    "hours": "24/7",
    "phone": "",
    "description": "Little Free Pantry - Take what you need, leave what you can"
  },
  {
    "name": "People First Pantry - Dickinson",
    "type": "food_box",
    "id": "little-pantry-1155",
    "address": "Dickinson County, Kansas, United States",
    "city": "",
    "state": "Kansas",
    "coordinates": {
      "lat": 38.8790615,
      "lng": -97.1893341
    },
    "hours": "24/7",
    "phone": "",
    "description": "Little Free Pantry - Take what you need, leave what you can"
  },
  {
    "name": "People First Pantry - Bismarck",
    "type": "food_box",
    "id": "little-pantry-1156",
    "address": "Bismarck, Burleigh County, North Dakota, United States",
    "city": "Bismarck",
    "state": "North Dakota",
    "coordinates": {
      "lat": 46.808327,
      "lng": -100.783739
    },
    "hours": "24/7",
    "phone": "",
    "description": "Little Free Pantry - Take what you need, leave what you can"
  },
  {
    "name": "People First Pantry - Belfield",
    "type": "food_box",
    "id": "little-pantry-1157",
    "address": "Belfield, Stark County, North Dakota, 58622, United States",
    "city": "Belfield",
    "state": "North Dakota",
    "coordinates": {
      "lat": 46.8852906,
      "lng": -103.1996219
    },
    "hours": "24/7",
    "phone": "",
    "description": "Little Free Pantry - Take what you need, leave what you can"
  },
  {
    "name": "Grassy Creek Christian Church",
    "type": "food_box",
    "id": "little-pantry-1168",
    "address": "Grassy Creek Christian Church, 6884, KY 17, Pendleton County, Kentucky, 41033, United States",
    "city": "",
    "state": "Kentucky",
    "coordinates": {
      "lat": 38.7928072,
      "lng": -84.4259313
    },
    "hours": "24/7",
    "phone": "",
    "description": "Little Free Pantry - Take what you need, leave what you can"
  },
  {
    "name": "New Hope Church",
    "type": "food_box",
    "id": "little-pantry-1189",
    "address": "New Hope Church, Crenshaw County, Alabama, United States",
    "city": "",
    "state": "Alabama",
    "coordinates": {
      "lat": 31.6813572,
      "lng": -86.2406706
    },
    "hours": "24/7",
    "phone": "",
    "description": "Little Free Pantry - Take what you need, leave what you can"
  },
  {
    "name": "food pantry",
    "type": "food_box",
    "id": "little-pantry-1191",
    "address": "Food Pantry, Loch Raven Road, East Baltimore Midway, Baltimore, Maryland, 21218, United States",
    "city": "Baltimore",
    "state": "Maryland",
    "coordinates": {
      "lat": 39.3174662,
      "lng": -76.6076724
    },
    "hours": "24/7",
    "phone": "",
    "description": "Little Free Pantry - Take what you need, leave what you can"
  },
  {
    "name": "Burlington Public Library",
    "type": "food_box",
    "id": "little-pantry-1195",
    "address": "Burlington Public Library, Washington Avenue, Burlington, Skagit County, Washington, 98233, United States",
    "city": "Burlington",
    "state": "Washington",
    "coordinates": {
      "lat": 48.474657,
      "lng": -122.323754
    },
    "hours": "24/7",
    "phone": "",
    "description": "Little Free Pantry - Take what you need, leave what you can"
  },
  {
    "name": "Parkland Community Library",
    "type": "food_box",
    "id": "little-pantry-1197",
    "address": "Parkland Community Library, 4422, Walbert Avenue, Walbert, Allentown, Lehigh County, Pennsylvania, 18104, United States",
    "city": "Allentown",
    "state": "Pennsylvania",
    "coordinates": {
      "lat": 40.6112963,
      "lng": -75.5648852
    },
    "hours": "24/7",
    "phone": "",
    "description": "Little Free Pantry - Take what you need, leave what you can"
  },
  {
    "name": "Blessing Box - First United Methodist Church",
    "type": "food_box",
    "id": "little-pantry-1208",
    "address": "First United Methodist Church, Church Street, Highland Park, Wayne County, Michigan, 48203, United States",
    "city": "Highland Park",
    "state": "Michigan",
    "coordinates": {
      "lat": 42.4151765,
      "lng": -83.1029675
    },
    "hours": "24/7",
    "phone": "",
    "description": "Little Free Pantry - Take what you need, leave what you can"
  },
  {
    "name": "Little Free Pantry - Wytheville",
    "type": "food_box",
    "id": "little-pantry-1210",
    "address": "Wytheville, Wythe County, Virginia, 24382, United States",
    "city": "Wytheville",
    "state": "Virginia",
    "coordinates": {
      "lat": 36.9479966,
      "lng": -81.0869747
    },
    "hours": "24/7",
    "phone": "",
    "description": "Little Free Pantry - Take what you need, leave what you can"
  },
  {
    "name": "Trinity Lutheran Church",
    "type": "food_box",
    "id": "little-pantry-1211",
    "address": "Trinity Lutheran Church, 37th Street, Queens, Queens County, City of New York, New York, 11101, United States",
    "city": "City of New York",
    "state": "New York",
    "coordinates": {
      "lat": 40.7618904,
      "lng": -73.9191898
    },
    "hours": "24/7",
    "phone": "",
    "description": "Little Free Pantry - Take what you need, leave what you can"
  },
  {
    "name": "Faith Baptist Church",
    "type": "food_box",
    "id": "little-pantry-1217",
    "address": "Faith Baptist Church, Winfield, DuPage County, Illinois, United States",
    "city": "Winfield",
    "state": "Illinois",
    "coordinates": {
      "lat": 41.8798575,
      "lng": -88.1466718
    },
    "hours": "24/7",
    "phone": "",
    "description": "Little Free Pantry - Take what you need, leave what you can"
  },
  {
    "name": "Farmhouse 9000",
    "type": "food_box",
    "id": "little-pantry-1225",
    "address": "Farmhouse, Fresno County, California, 93611, United States",
    "city": "",
    "state": "California",
    "coordinates": {
      "lat": 36.8673347,
      "lng": -119.6913911
    },
    "hours": "24/7",
    "phone": "",
    "description": "Little Free Pantry - Take what you need, leave what you can"
  },
  {
    "name": "St. Peter Lutheran Church",
    "type": "food_box",
    "id": "little-pantry-1228",
    "address": "St. Peter Lutheran Church, East Wellesley Avenue, Hillyard, Spokane, Spokane County, Washington, 99217, United States",
    "city": "Spokane",
    "state": "Washington",
    "coordinates": {
      "lat": 47.7002888,
      "lng": -117.367564
    },
    "hours": "24/7",
    "phone": "",
    "description": "Little Free Pantry - Take what you need, leave what you can"
  },
  {
    "name": "Sageville School",
    "type": "food_box",
    "id": "little-pantry-1231",
    "address": "Sageville Elementary School, 12015, Sherrill Road, Sageville, Dubuque County, Iowa, 52002, United States",
    "city": "Sageville",
    "state": "Iowa",
    "coordinates": {
      "lat": 42.5683292,
      "lng": -90.7201737
    },
    "hours": "24/7",
    "phone": "",
    "description": "Little Free Pantry - Take what you need, leave what you can"
  },
  {
    "name": "JK❤️ Family Farm",
    "type": "food_box",
    "id": "little-pantry-1234",
    "address": "Family Farm, Plano, Collin County, Texas, 75024, United States",
    "city": "Plano",
    "state": "Texas",
    "coordinates": {
      "lat": 33.0783751,
      "lng": -96.789958
    },
    "hours": "24/7",
    "phone": "",
    "description": "Little Free Pantry - Take what you need, leave what you can"
  },
  {
    "name": "Blessing Box - Faith UMC",
    "type": "food_box",
    "id": "little-pantry-1244",
    "address": "Faith United Methodist Church, 202, 9th Street South, Olivia, Renville County, Minnesota, 56277, United States",
    "city": "Olivia",
    "state": "Minnesota",
    "coordinates": {
      "lat": 44.7752451,
      "lng": -94.9899118
    },
    "hours": "24/7",
    "phone": "",
    "description": "Little Free Pantry - Take what you need, leave what you can"
  },
  {
    "name": "Bethel Methodist Church",
    "type": "food_box",
    "id": "little-pantry-1245",
    "address": "Bethel Methodist Church, Elklick Road, Tate Township, Clermont County, Ohio, United States",
    "city": "",
    "state": "Ohio",
    "coordinates": {
      "lat": 39.0074496,
      "lng": -84.1382779
    },
    "hours": "24/7",
    "phone": "",
    "description": "Little Free Pantry - Take what you need, leave what you can"
  },
  {
    "name": "Food Blessing Box",
    "type": "food_box",
    "id": "little-pantry-1263",
    "address": "Blessing Box (food), Alabama Avenue, Dutchtown, Saint Louis, Missouri, 63111, United States",
    "city": "Saint Louis",
    "state": "Missouri",
    "coordinates": {
      "lat": 38.5707055,
      "lng": -90.2448629
    },
    "hours": "24/7",
    "phone": "",
    "description": "Little Free Pantry - Take what you need, leave what you can"
  },
  {
    "name": "Little Free Plaza",
    "type": "food_box",
    "id": "little-pantry-1266",
    "address": "Little Free Library, North Mayfair Drive, Oklahoma City, Oklahoma County, Oklahoma, 73112, United States",
    "city": "Oklahoma City",
    "state": "Oklahoma",
    "coordinates": {
      "lat": 35.5193898,
      "lng": -97.5654121
    },
    "hours": "24/7",
    "phone": "",
    "description": "Little Free Pantry - Take what you need, leave what you can"
  },
  {
    "name": "Community First Pantry",
    "type": "food_box",
    "id": "little-pantry-1271",
    "address": "UA3 Community First Food Pantry, 384, Grand Street, Lower East Side, Manhattan Community Board 3, Manhattan, New York County, City of New York, New York, 10002, United States",
    "city": "City of New York",
    "state": "New York",
    "coordinates": {
      "lat": 40.7164243,
      "lng": -73.9877507
    },
    "hours": "24/7",
    "phone": "",
    "description": "Little Free Pantry - Take what you need, leave what you can"
  },
  {
    "name": "Carrboro elementary",
    "type": "food_box",
    "id": "little-pantry-1277",
    "address": "Carrboro Elementary School, 400, Shelton Street, Old Carrboro, Downtown, Carrboro, Orange County, North Carolina, 27510, United States",
    "city": "Carrboro",
    "state": "North Carolina",
    "coordinates": {
      "lat": 35.915768,
      "lng": -79.0778025
    },
    "hours": "24/7",
    "phone": "",
    "description": "Little Free Pantry - Take what you need, leave what you can"
  },
  {
    "name": "Trillium Lutheran Church - Little Free Pantry",
    "type": "food_box",
    "id": "little-pantry-1278",
    "address": "Little Free Pantry, North 6th Street, Williamsburg, Brooklyn, Kings County, City of New York, New York, 11211, United States",
    "city": "City of New York",
    "state": "New York",
    "coordinates": {
      "lat": 40.7192193,
      "lng": -73.9615918
    },
    "hours": "24/7",
    "phone": "",
    "description": "Little Free Pantry - Take what you need, leave what you can"
  },
  {
    "name": "FUMC - Little Free Pantry",
    "type": "food_box",
    "id": "little-pantry-1282",
    "address": "Little Free Pantry, North 6th Street, Williamsburg, Brooklyn, Kings County, City of New York, New York, 11211, United States",
    "city": "City of New York",
    "state": "New York",
    "coordinates": {
      "lat": 40.7192193,
      "lng": -73.9615918
    },
    "hours": "24/7",
    "phone": "",
    "description": "Little Free Pantry - Take what you need, leave what you can"
  },
  {
    "name": "Blessing Hands",
    "type": "food_box",
    "id": "little-pantry-1289",
    "address": "Blessing Hands Childcare Center, Saint Charles Rock Road, Mary Ridge, Breckenridge Hills, Saint Louis County, Missouri, 63074, United States",
    "city": "Breckenridge Hills",
    "state": "Missouri",
    "coordinates": {
      "lat": 38.7210205,
      "lng": -90.3701868
    },
    "hours": "24/7",
    "phone": "",
    "description": "Little Free Pantry - Take what you need, leave what you can"
  },
  {
    "name": "Good Shepherd Episcopal church",
    "type": "food_box",
    "id": "little-pantry-1293",
    "address": "Episcopal Church of the Good Shepherd, 240, East 31st Street, Manhattan Community Board 6, Manhattan, New York County, City of New York, New York, 10016, United States",
    "city": "City of New York",
    "state": "New York",
    "coordinates": {
      "lat": 40.7429634,
      "lng": -73.9781278
    },
    "hours": "24/7",
    "phone": "",
    "description": "Little Free Pantry - Take what you need, leave what you can"
  },
  {
    "name": "People's Community Church",
    "type": "food_box",
    "id": "little-pantry-1301",
    "address": "People's Community Church, 8601, Woodward Avenue, Piety Hill, New Center, Detroit, Wayne County, Michigan, 48202, United States",
    "city": "Detroit",
    "state": "Michigan",
    "coordinates": {
      "lat": 42.3788459,
      "lng": -83.0797016
    },
    "hours": "24/7",
    "phone": "",
    "description": "Little Free Pantry - Take what you need, leave what you can"
  },
  {
    "name": "Neyland",
    "type": "food_box",
    "id": "little-pantry-1304",
    "address": "Neyland Stadium, 1300, Phillip Fulmer Way, Fort Sanders, Knoxville, Knox County, East Tennessee, Tennessee, 37916, United States",
    "city": "Knoxville",
    "state": "Tennessee",
    "coordinates": {
      "lat": 35.9550647,
      "lng": -83.9259872
    },
    "hours": "24/7",
    "phone": "",
    "description": "Little Free Pantry - Take what you need, leave what you can"
  },
  {
    "name": "Hopewell Presbyterian Church",
    "type": "food_box",
    "id": "little-pantry-1314",
    "address": "Hopewell Presbyterian Church, State Highway 302, Bullville, Town of Crawford, Orange County, New York, 12566, United States",
    "city": "",
    "state": "New York",
    "coordinates": {
      "lat": 41.5706767,
      "lng": -74.3350827
    },
    "hours": "24/7",
    "phone": "",
    "description": "Little Free Pantry - Take what you need, leave what you can"
  },
  {
    "name": "Methodist Church Pacific",
    "type": "food_box",
    "id": "little-pantry-1316",
    "address": "Methodist Church, Pacific Avenue, Osawatomie, Miami County, Kansas, 66064, United States",
    "city": "Osawatomie",
    "state": "Kansas",
    "coordinates": {
      "lat": 38.4973779,
      "lng": -94.9488305
    },
    "hours": "24/7",
    "phone": "",
    "description": "Little Free Pantry - Take what you need, leave what you can"
  },
  {
    "name": "Calvary Lutheran Church & School",
    "type": "food_box",
    "id": "little-pantry-1317",
    "address": "Cross of Calvary Lutheran Church School, Elvis Presley Boulevard, Whitehaven, Memphis, Shelby County, West Tennessee, Tennessee, 38116, United States",
    "city": "Memphis",
    "state": "Tennessee",
    "coordinates": {
      "lat": 35.030396,
      "lng": -90.025785
    },
    "hours": "24/7",
    "phone": "",
    "description": "Little Free Pantry - Take what you need, leave what you can"
  },
  {
    "name": "Little Free Produce Stand",
    "type": "food_box",
    "id": "little-pantry-1320",
    "address": "Little Free Produce Stand, Swift Street, North Central, City of Troy, Rensselaer County, New York, 12183, United States",
    "city": "City of Troy",
    "state": "New York",
    "coordinates": {
      "lat": 42.7498096,
      "lng": -73.6809172
    },
    "hours": "24/7",
    "phone": "",
    "description": "Little Free Pantry - Take what you need, leave what you can"
  },
  {
    "name": "Two Rivers Church",
    "type": "food_box",
    "id": "little-pantry-1329",
    "address": "Two Rivers Church, 326, Gilbert, Maricopa County, Arizona, 85234, United States",
    "city": "Gilbert",
    "state": "Arizona",
    "coordinates": {
      "lat": 33.366008,
      "lng": -111.7860387
    },
    "hours": "24/7",
    "phone": "",
    "description": "Little Free Pantry - Take what you need, leave what you can"
  },
  {
    "name": "St John's Lutheran Church",
    "type": "food_box",
    "id": "little-pantry-1330",
    "address": "Saint John's Lutheran Church, 116, North 7th Street, Zanesville, Muskingum County, Ohio, 43701, United States",
    "city": "Zanesville",
    "state": "Ohio",
    "coordinates": {
      "lat": 39.9420099,
      "lng": -82.003614
    },
    "hours": "24/7",
    "phone": "",
    "description": "Little Free Pantry - Take what you need, leave what you can"
  },
  {
    "name": "TSCI # 154874",
    "type": "food_box",
    "id": "little-pantry-1339",
    "address": "Tecumseh State Correctional Institution, 2725, Highway 50, Tecumseh, Johnson County, Nebraska, 68450, United States",
    "city": "Tecumseh",
    "state": "Nebraska",
    "coordinates": {
      "lat": 40.4022335,
      "lng": -96.185253
    },
    "hours": "24/7",
    "phone": "",
    "description": "Little Free Pantry - Take what you need, leave what you can"
  },
  {
    "name": "Covenant Presbyterian Church",
    "type": "food_box",
    "id": "little-pantry-1352",
    "address": "Covenant Presbyterian Church, 2012-2018, West Dickens Avenue, Bucktown, Chicago, West Chicago Township, Cook County, Illinois, 60647, United States",
    "city": "Chicago",
    "state": "Illinois",
    "coordinates": {
      "lat": 41.919672,
      "lng": -87.6783686
    },
    "hours": "24/7",
    "phone": "",
    "description": "Little Free Pantry - Take what you need, leave what you can"
  },
  {
    "name": "St. Andrew's Presbyterian Church",
    "type": "food_box",
    "id": "little-pantry-1358",
    "address": "St. Andrew's Presbyterian Church, Dearborn Heights, Wayne County, Michigan, United States",
    "city": "Dearborn Heights",
    "state": "Michigan",
    "coordinates": {
      "lat": 42.3549511,
      "lng": -83.3053509
    },
    "hours": "24/7",
    "phone": "",
    "description": "Little Free Pantry - Take what you need, leave what you can"
  },
  {
    "name": "United Lutheran",
    "type": "food_box",
    "id": "little-pantry-1362",
    "address": "United Latvian Evangelical Lutheran Church, Woods Park, Lincoln, Lancaster County, Nebraska, United States",
    "city": "Lincoln",
    "state": "Nebraska",
    "coordinates": {
      "lat": 40.8011085,
      "lng": -96.6732984
    },
    "hours": "24/7",
    "phone": "",
    "description": "Little Free Pantry - Take what you need, leave what you can"
  },
  {
    "name": "St John the Baptist Episcopal Church",
    "type": "food_box",
    "id": "little-pantry-1378",
    "address": "St. John the Baptist Episcopal Church, 330, McClellan Street, River District, Wausau, Marathon County, Wisconsin, 54403, United States",
    "city": "Wausau",
    "state": "Wisconsin",
    "coordinates": {
      "lat": 44.9617003,
      "lng": -89.6267547
    },
    "hours": "24/7",
    "phone": "",
    "description": "Little Free Pantry - Take what you need, leave what you can"
  },
  {
    "name": "Willy Street Pantry",
    "type": "food_box",
    "id": "little-pantry-1403",
    "address": "Willy Street Pantry, South Few Street, Marquette, Madison, Dane County, Wisconsin, 53703, United States",
    "city": "Madison",
    "state": "Wisconsin",
    "coordinates": {
      "lat": 43.0833921,
      "lng": -89.3644084
    },
    "hours": "24/7",
    "phone": "",
    "description": "Little Free Pantry - Take what you need, leave what you can"
  },
  {
    "name": "Pantry",
    "type": "food_box",
    "id": "little-pantry-1410",
    "address": "Pantry, Michigan Avenue, Carondelet, Saint Louis, Missouri, 63111, United States",
    "city": "Saint Louis",
    "state": "Missouri",
    "coordinates": {
      "lat": 38.5567972,
      "lng": -90.2521775
    },
    "hours": "24/7",
    "phone": "",
    "description": "Little Free Pantry - Take what you need, leave what you can"
  },
  {
    "name": "Lakebay Community Church (Lakebay)",
    "type": "food_box",
    "id": "little-pantry-1420",
    "address": "Lakebay Community Church, Cornwall Road Southwest, Lakebay, Pierce County, Washington, 98349, United States",
    "city": "",
    "state": "Washington",
    "coordinates": {
      "lat": 47.2562829,
      "lng": -122.761942
    },
    "hours": "24/7",
    "phone": "",
    "description": "Little Free Pantry - Take what you need, leave what you can"
  },
  {
    "name": "olalla",
    "type": "food_box",
    "id": "little-pantry-1424",
    "address": "Olalla, Kitsap County, Washington, 98359, United States",
    "city": "",
    "state": "Washington",
    "coordinates": {
      "lat": 47.4305404,
      "lng": -122.5429467
    },
    "hours": "24/7",
    "phone": "",
    "description": "Little Free Pantry - Take what you need, leave what you can"
  },
  {
    "name": "Round Guys",
    "type": "food_box",
    "id": "little-pantry-1425",
    "address": "Round Guys Brewery, 324, South Wood Street, Lansdale, Montgomery County, Pennsylvania, 19446, United States",
    "city": "Lansdale",
    "state": "Pennsylvania",
    "coordinates": {
      "lat": 40.2433651,
      "lng": -75.2877465
    },
    "hours": "24/7",
    "phone": "",
    "description": "Little Free Pantry - Take what you need, leave what you can"
  },
  {
    "name": "Bethel Rd",
    "type": "food_box",
    "id": "little-pantry-1428",
    "address": "Bethel Road, Snacks, Indianapolis, Marion County, Indiana, 46254, United States",
    "city": "Indianapolis",
    "state": "Indiana",
    "coordinates": {
      "lat": 39.8447108,
      "lng": -86.251822
    },
    "hours": "24/7",
    "phone": "",
    "description": "Little Free Pantry - Take what you need, leave what you can"
  },
  {
    "name": "St George’s Episcopal Church",
    "type": "food_box",
    "id": "little-pantry-1438",
    "address": "Saint George's Episcopal Church, 135-32, 38th Avenue, Flushing Chinatown, Queens, Queens County, City of New York, New York, 11354, United States",
    "city": "City of New York",
    "state": "New York",
    "coordinates": {
      "lat": 40.7603608,
      "lng": -73.831372
    },
    "hours": "24/7",
    "phone": "",
    "description": "Little Free Pantry - Take what you need, leave what you can"
  },
  {
    "name": "Lil' Free Pantry - West Point Community",
    "type": "food_box",
    "id": "little-pantry-1440",
    "address": "West Point, Jensens Community, Garden City Beach, Horry County, South Carolina, 29576, United States",
    "city": "Garden City Beach",
    "state": "South Carolina",
    "coordinates": {
      "lat": 33.588875,
      "lng": -79.0180755
    },
    "hours": "24/7",
    "phone": "",
    "description": "Little Free Pantry - Take what you need, leave what you can"
  },
  {
    "name": "Faith Presbyterian Church",
    "type": "food_box",
    "id": "little-pantry-1450",
    "address": "Faith Presbyterian Church, Tacoma, Pierce County, Washington, United States",
    "city": "Tacoma",
    "state": "Washington",
    "coordinates": {
      "lat": 47.2545259,
      "lng": -122.511023
    },
    "hours": "24/7",
    "phone": "",
    "description": "Little Free Pantry - Take what you need, leave what you can"
  },
  {
    "name": "The Community Table",
    "type": "food_box",
    "id": "little-pantry-1453",
    "address": "The Community Table, 650, Lincoln Street, The Vista, Columbia, Richland County, South Carolina, 29201, United States",
    "city": "Columbia",
    "state": "South Carolina",
    "coordinates": {
      "lat": 33.992112,
      "lng": -81.0344173
    },
    "hours": "24/7",
    "phone": "",
    "description": "Little Free Pantry - Take what you need, leave what you can"
  },
  {
    "name": "East End United Methodist Church",
    "type": "food_box",
    "id": "little-pantry-1455",
    "address": "East End United Methodist Church, Holly Street, East Nashville, Nashville, Davidson County, Middle Tennessee, Tennessee, 37206, United States",
    "city": "Nashville",
    "state": "Tennessee",
    "coordinates": {
      "lat": 36.1756118,
      "lng": -86.7477759
    },
    "hours": "24/7",
    "phone": "",
    "description": "Little Free Pantry - Take what you need, leave what you can"
  },
  {
    "name": "American Legion Post 139",
    "type": "food_box",
    "id": "little-pantry-1464",
    "address": "American Legion Post 139, Washington Boulevard, Virginia Square, Clarendon, Arlington, Arlington County, Virginia, 22213, United States",
    "city": "Arlington",
    "state": "Virginia",
    "coordinates": {
      "lat": 38.8862384,
      "lng": -77.1023985
    },
    "hours": "24/7",
    "phone": "",
    "description": "Little Free Pantry - Take what you need, leave what you can"
  },
  {
    "name": "The Dude's",
    "type": "food_box",
    "id": "little-pantry-1465",
    "address": "The Dude's, North Broadway, Crookston, Polk County, Minnesota, 56716, United States",
    "city": "Crookston",
    "state": "Minnesota",
    "coordinates": {
      "lat": 47.7740747,
      "lng": -96.6062923
    },
    "hours": "24/7",
    "phone": "",
    "description": "Little Free Pantry - Take what you need, leave what you can"
  },
  {
    "name": "MyMichigan Health",
    "type": "food_box",
    "id": "little-pantry-1466",
    "address": "MyMichigan Health, Alpena Bi-Path, Alpena, Alpena County, Michigan, 49707, United States",
    "city": "Alpena",
    "state": "Michigan",
    "coordinates": {
      "lat": 45.0794892,
      "lng": -83.4528171
    },
    "hours": "24/7",
    "phone": "",
    "description": "Little Free Pantry - Take what you need, leave what you can"
  },
  {
    "name": "All Saints Episcopal",
    "type": "food_box",
    "id": "little-pantry-1467",
    "address": "All Saints Episcopal;All Saints Episcopal Church, Avenue A, Hitchcock, Galveston County, Texas, 77510, United States",
    "city": "Hitchcock",
    "state": "Texas",
    "coordinates": {
      "lat": 29.3617479,
      "lng": -95.0554081
    },
    "hours": "24/7",
    "phone": "",
    "description": "Little Free Pantry - Take what you need, leave what you can"
  },
  {
    "name": "Newcomb Church",
    "type": "food_box",
    "id": "little-pantry-1470",
    "address": "Newcomb Memorial Church, West Columbia Avenue, Davenport, Scott County, Iowa, 52804, United States",
    "city": "Davenport",
    "state": "Iowa",
    "coordinates": {
      "lat": 41.5459996,
      "lng": -90.6002021
    },
    "hours": "24/7",
    "phone": "",
    "description": "Little Free Pantry - Take what you need, leave what you can"
  },
  {
    "name": "Leitchfield, KY",
    "type": "food_box",
    "id": "little-pantry-1472",
    "address": "Leitchfield, Grayson County, Kentucky, 42754, United States",
    "city": "Leitchfield",
    "state": "Kentucky",
    "coordinates": {
      "lat": 37.4801693,
      "lng": -86.2936604
    },
    "hours": "24/7",
    "phone": "",
    "description": "Little Free Pantry - Take what you need, leave what you can"
  },
  {
    "name": "Wellsville United Methodist Church",
    "type": "food_box",
    "id": "little-pantry-1477",
    "address": "Wellsville United Methodist Church, South Wellsville Highway, Wellsville, Palmyra Township, Lenawee County, Michigan, 49228, United States",
    "city": "Palmyra Township",
    "state": "Michigan",
    "coordinates": {
      "lat": 41.8858333,
      "lng": -83.8852778
    },
    "hours": "24/7",
    "phone": "",
    "description": "Little Free Pantry - Take what you need, leave what you can"
  },
  {
    "name": "Patrick's Pantry",
    "type": "food_box",
    "id": "little-pantry-1484",
    "address": "Saint Patrick's Food Pantry, Saint Patrick's Drive, Pelham, Hillsborough County, New Hampshire, 03076, United States",
    "city": "Pelham",
    "state": "New Hampshire",
    "coordinates": {
      "lat": 42.7319821,
      "lng": -71.3206126
    },
    "hours": "24/7",
    "phone": "",
    "description": "Little Free Pantry - Take what you need, leave what you can"
  },
  {
    "name": "Libertyville, Iowa LFP - City Hall",
    "type": "food_box",
    "id": "little-pantry-1485",
    "address": "City Hall, Broadway, Tribeca, Lower Manhattan, Manhattan, New York County, City of New York, New York, 10003, United States",
    "city": "City of New York",
    "state": "New York",
    "coordinates": {
      "lat": 40.713282,
      "lng": -74.006978
    },
    "hours": "24/7",
    "phone": "",
    "description": "Little Free Pantry - Take what you need, leave what you can"
  },
  {
    "name": "Fairfield, Iowa LFP - N. 2nd St.",
    "type": "food_box",
    "id": "little-pantry-1486",
    "address": "North Second Street, Ward 4, Nashua, Hillsborough County, New Hampshire, 03060, United States",
    "city": "Nashua",
    "state": "New Hampshire",
    "coordinates": {
      "lat": 42.7560004,
      "lng": -71.4763546
    },
    "hours": "24/7",
    "phone": "",
    "description": "Little Free Pantry - Take what you need, leave what you can"
  },
  {
    "name": "Refuge Church",
    "type": "food_box",
    "id": "little-pantry-1523",
    "address": "Refuge Church, 3005, Selma Street, Fort Worth, Tarrant County, Texas, 76111, United States",
    "city": "Fort Worth",
    "state": "Texas",
    "coordinates": {
      "lat": 32.7898858,
      "lng": -97.3030151
    },
    "hours": "24/7",
    "phone": "",
    "description": "Little Free Pantry - Take what you need, leave what you can"
  },
  {
    "name": "Little Free Pantry - Benedictine Living Community",
    "type": "food_box",
    "id": "little-pantry-1524",
    "address": "Benedictine Living Community, West Campus Drive, Northwest, Wausau, Marathon County, Wisconsin, 54401, United States",
    "city": "Wausau",
    "state": "Wisconsin",
    "coordinates": {
      "lat": 44.9891382,
      "lng": -89.6406544
    },
    "hours": "24/7",
    "phone": "",
    "description": "Little Free Pantry - Take what you need, leave what you can"
  },
  {
    "name": "Forest Alliance Church",
    "type": "food_box",
    "id": "little-pantry-1555",
    "address": "Lake Forest Alliance Church, Lake Forest Drive, Omaha, Douglas County, Nebraska, 68164, United States",
    "city": "Omaha",
    "state": "Nebraska",
    "coordinates": {
      "lat": 41.2939746,
      "lng": -96.0876384
    },
    "hours": "24/7",
    "phone": "",
    "description": "Little Free Pantry - Take what you need, leave what you can"
  },
  {
    "name": "Baring Cross",
    "type": "food_box",
    "id": "little-pantry-1567",
    "address": "Baring Cross Street, Vermont Vista, Los Angeles, Los Angeles County, California, 90044, United States",
    "city": "Los Angeles",
    "state": "California",
    "coordinates": {
      "lat": 33.9408854,
      "lng": -118.2893808
    },
    "hours": "24/7",
    "phone": "",
    "description": "Little Free Pantry - Take what you need, leave what you can"
  },
  {
    "name": "Silver Heels",
    "type": "food_box",
    "id": "little-pantry-1570",
    "address": "Silver Heels Circle, Fairplay, Park County, Colorado, 80440, United States",
    "city": "Fairplay",
    "state": "Colorado",
    "coordinates": {
      "lat": 39.2306948,
      "lng": -105.9998181
    },
    "hours": "24/7",
    "phone": "",
    "description": "Little Free Pantry - Take what you need, leave what you can"
  },
  {
    "name": "Wesley United Methodist Church",
    "type": "food_box",
    "id": "little-pantry-1588",
    "address": "Historic Wesley Center, 101, East Grant Street, Loring Park, Minneapolis, Hennepin County, Minnesota, 55403, United States",
    "city": "Minneapolis",
    "state": "Minnesota",
    "coordinates": {
      "lat": 44.9695564,
      "lng": -93.2760745
    },
    "hours": "24/7",
    "phone": "",
    "description": "Little Free Pantry - Take what you need, leave what you can"
  },
  {
    "name": "West King Street",
    "type": "food_box",
    "id": "little-pantry-1589",
    "address": "West King Street, Chamberlain, Chamberlain Township, Brule County, South Dakota, 57325, United States",
    "city": "Chamberlain",
    "state": "South Dakota",
    "coordinates": {
      "lat": 43.8116656,
      "lng": -99.3378198
    },
    "hours": "24/7",
    "phone": "",
    "description": "Little Free Pantry - Take what you need, leave what you can"
  },
  {
    "name": "Holy Trinity Orthodox Cathedral",
    "type": "food_box",
    "id": "little-pantry-1599",
    "address": "Holy Trinity Orthodox Cathedral, 1121, North Leavitt Street, Ukrainian Village, West Town, Chicago, West Chicago Township, Cook County, Illinois, 60622, United States",
    "city": "Chicago",
    "state": "Illinois",
    "coordinates": {
      "lat": 41.9020221,
      "lng": -87.6817928
    },
    "hours": "24/7",
    "phone": "",
    "description": "Little Free Pantry - Take what you need, leave what you can"
  },
  {
    "name": "KG PANTRY",
    "type": "food_box",
    "id": "little-pantry-1600",
    "address": "Sister BJs Pantry, Oklahoma City, Oklahoma County, Oklahoma, United States",
    "city": "Oklahoma City",
    "state": "Oklahoma",
    "coordinates": {
      "lat": 35.472469,
      "lng": -97.5266698
    },
    "hours": "24/7",
    "phone": "",
    "description": "Little Free Pantry - Take what you need, leave what you can"
  },
  {
    "name": "3508 22nd street SE",
    "type": "food_box",
    "id": "little-pantry-1607",
    "address": "3508, 22nd Street Southeast, Shipley Terrace, Ward 8, Washington, Prince George's County, District of Columbia, 20020, United States",
    "city": "Washington",
    "state": "District of Columbia",
    "coordinates": {
      "lat": 38.8459791,
      "lng": -76.9725498
    },
    "hours": "24/7",
    "phone": "",
    "description": "Little Free Pantry - Take what you need, leave what you can"
  },
  {
    "name": "Hope United Methodist",
    "type": "food_box",
    "id": "little-pantry-1617",
    "address": "Hope United Methodist, 10610, Waterville Swanton Road, Whitehouse, Lucas County, Ohio, 43566, United States",
    "city": "Whitehouse",
    "state": "Ohio",
    "coordinates": {
      "lat": 41.5175078,
      "lng": -83.7959773
    },
    "hours": "24/7",
    "phone": "",
    "description": "Little Free Pantry - Take what you need, leave what you can"
  },
  {
    "name": "Sunflower Club Outreach",
    "type": "food_box",
    "id": "little-pantry-1619",
    "address": "Sunflower Club Cafe and Outreach, 11211-122, Lawyers Road, Downtown, Mint Hill, Mecklenburg County, North Carolina, 28227, United States",
    "city": "Mint Hill",
    "state": "North Carolina",
    "coordinates": {
      "lat": 35.1745132,
      "lng": -80.6576915
    },
    "hours": "24/7",
    "phone": "",
    "description": "Little Free Pantry - Take what you need, leave what you can"
  },
  {
    "name": "Euclid",
    "type": "food_box",
    "id": "little-pantry-1620",
    "address": "Euclid, Cuyahoga County, Ohio, United States",
    "city": "Euclid",
    "state": "Ohio",
    "coordinates": {
      "lat": 41.5931049,
      "lng": -81.5267873
    },
    "hours": "24/7",
    "phone": "",
    "description": "Little Free Pantry - Take what you need, leave what you can"
  },
  {
    "name": "House of Prayer Lutheran Church",
    "type": "food_box",
    "id": "little-pantry-1623",
    "address": "House of Prayer Lutheran Church, Ironside Drive, San Antonio, Bexar County, Texas, 78288, United States",
    "city": "San Antonio",
    "state": "Texas",
    "coordinates": {
      "lat": 29.5342012,
      "lng": -98.5582348
    },
    "hours": "24/7",
    "phone": "",
    "description": "Little Free Pantry - Take what you need, leave what you can"
  },
  {
    "name": "First Reformed Church",
    "type": "food_box",
    "id": "little-pantry-1631",
    "address": "First Reformed Church, 160, Neilson Street, New Brunswick, Middlesex County, New Jersey, 08901, United States",
    "city": "New Brunswick",
    "state": "New Jersey",
    "coordinates": {
      "lat": 40.495037,
      "lng": -74.4423598
    },
    "hours": "24/7",
    "phone": "",
    "description": "Little Free Pantry - Take what you need, leave what you can"
  },
  {
    "name": "Blessing Box Food",
    "type": "food_box",
    "id": "little-pantry-1653",
    "address": "Blessing Box (food), Alabama Avenue, Dutchtown, Saint Louis, Missouri, 63111, United States",
    "city": "Saint Louis",
    "state": "Missouri",
    "coordinates": {
      "lat": 38.5707055,
      "lng": -90.2448629
    },
    "hours": "24/7",
    "phone": "",
    "description": "Little Free Pantry - Take what you need, leave what you can"
  },
  {
    "name": "St. Paul's Episcopal, Murfreesboro, Tennessee",
    "type": "food_box",
    "id": "little-pantry-1661",
    "address": "Murfreesboro, Rutherford County, Middle Tennessee, Tennessee, United States",
    "city": "Murfreesboro",
    "state": "Tennessee",
    "coordinates": {
      "lat": 35.8460396,
      "lng": -86.3921096
    },
    "hours": "24/7",
    "phone": "",
    "description": "Little Free Pantry - Take what you need, leave what you can"
  },
  {
    "name": "Margaret Lane",
    "type": "food_box",
    "id": "little-pantry-1667",
    "address": "Margaret Lane, Granite Regional Park, College/Glen, Sacramento, Sacramento County, California, 95826, United States",
    "city": "Sacramento",
    "state": "California",
    "coordinates": {
      "lat": 38.5482189,
      "lng": -121.4026578
    },
    "hours": "24/7",
    "phone": "",
    "description": "Little Free Pantry - Take what you need, leave what you can"
  },
  {
    "name": "Salem United Methodist Church",
    "type": "food_box",
    "id": "little-pantry-1679",
    "address": "Salem United Methodist Church, West 129th Street, Saint Nicholas Houses, Manhattan Community Board 10, Manhattan, New York County, City of New York, New York, 10027, United States",
    "city": "City of New York",
    "state": "New York",
    "coordinates": {
      "lat": 40.8118765,
      "lng": -73.9467788
    },
    "hours": "24/7",
    "phone": "",
    "description": "Little Free Pantry - Take what you need, leave what you can"
  },
  {
    "name": "Church St Phoenixville",
    "type": "food_box",
    "id": "little-pantry-1683",
    "address": "Church Street, Phoenixville, Chester County, Pennsylvania, 19460, United States",
    "city": "Phoenixville",
    "state": "Pennsylvania",
    "coordinates": {
      "lat": 40.1325771,
      "lng": -75.5187453
    },
    "hours": "24/7",
    "phone": "",
    "description": "Little Free Pantry - Take what you need, leave what you can"
  },
  {
    "name": "Rosemary",
    "type": "food_box",
    "id": "little-pantry-1688",
    "address": "Rosemary, Montgomery, Montgomery County, Alabama, 36123, United States",
    "city": "Montgomery",
    "state": "Alabama",
    "coordinates": {
      "lat": 32.351528,
      "lng": -86.2394113
    },
    "hours": "24/7",
    "phone": "",
    "description": "Little Free Pantry - Take what you need, leave what you can"
  },
  {
    "name": "Little Free Pantry - Liberty Community Center",
    "type": "food_box",
    "id": "little-pantry-1698",
    "address": "Liberty Community Center, 1600, South Withers Road, Liberty, Clay County, Missouri, 64068, United States",
    "city": "Liberty",
    "state": "Missouri",
    "coordinates": {
      "lat": 39.2241921,
      "lng": -94.4383969
    },
    "hours": "24/7",
    "phone": "",
    "description": "Little Free Pantry - Take what you need, leave what you can"
  },
  {
    "name": "Zion United Church of Christ",
    "type": "food_box",
    "id": "little-pantry-1717",
    "address": "Zion United Church of Christ, Stemmers Run, Rossville, Baltimore County, Maryland, United States",
    "city": "Rossville",
    "state": "Maryland",
    "coordinates": {
      "lat": 39.3310127,
      "lng": -76.4813994
    },
    "hours": "24/7",
    "phone": "",
    "description": "Little Free Pantry - Take what you need, leave what you can"
  },
  {
    "name": "Cornerstone Boulder",
    "type": "food_box",
    "id": "little-pantry-1719",
    "address": "The Cornerstone, Boulder County, Colorado, United States",
    "city": "",
    "state": "Colorado",
    "coordinates": {
      "lat": 40.0018584,
      "lng": -105.4142189
    },
    "hours": "24/7",
    "phone": "",
    "description": "Little Free Pantry - Take what you need, leave what you can"
  },
  {
    "name": "Faith Lutheran Church",
    "type": "food_box",
    "id": "little-pantry-1721",
    "address": "Faith Lutheran Church, San Antonio, Bexar County, Texas, United States",
    "city": "San Antonio",
    "state": "Texas",
    "coordinates": {
      "lat": 29.5772312,
      "lng": -98.4439468
    },
    "hours": "24/7",
    "phone": "",
    "description": "Little Free Pantry - Take what you need, leave what you can"
  },
  {
    "name": "First Baptist Church",
    "type": "food_box",
    "id": "little-pantry-1734",
    "address": "First Baptist Church, 265, West 79th Street, Upper West Side, Manhattan Community Board 7, Manhattan, New York County, City of New York, New York, 10024, United States",
    "city": "City of New York",
    "state": "New York",
    "coordinates": {
      "lat": 40.7842704,
      "lng": -73.9802365
    },
    "hours": "24/7",
    "phone": "",
    "description": "Little Free Pantry - Take what you need, leave what you can"
  },
  {
    "name": "Little Necessities Pantry - Trinity UMC",
    "type": "food_box",
    "id": "little-pantry-1736",
    "address": "Trinity UMC, 210, West Main Street, Hummelstown, Dauphin County, Pennsylvania, 17036, United States",
    "city": "Hummelstown",
    "state": "Pennsylvania",
    "coordinates": {
      "lat": 40.2655065,
      "lng": -76.7116235
    },
    "hours": "24/7",
    "phone": "",
    "description": "Little Free Pantry - Take what you need, leave what you can"
  },
  {
    "name": "Kitchener 8",
    "type": "food_box",
    "id": "little-pantry-1737",
    "address": "8, Kitchener Street, Eagleville, Tiverton, Newport County, Rhode Island, 02878, United States",
    "city": "Tiverton",
    "state": "Rhode Island",
    "coordinates": {
      "lat": 41.6608235,
      "lng": -71.1527302
    },
    "hours": "24/7",
    "phone": "",
    "description": "Little Free Pantry - Take what you need, leave what you can"
  },
  {
    "name": "Kitchener 7",
    "type": "food_box",
    "id": "little-pantry-1738",
    "address": "7, Kitchener Street, Eagleville, Tiverton, Newport County, Rhode Island, 02878, United States",
    "city": "Tiverton",
    "state": "Rhode Island",
    "coordinates": {
      "lat": 41.6606636,
      "lng": -71.1527848
    },
    "hours": "24/7",
    "phone": "",
    "description": "Little Free Pantry - Take what you need, leave what you can"
  },
  {
    "name": "Kitchener 6",
    "type": "food_box",
    "id": "little-pantry-1739",
    "address": "6, Kitchener Road, Pratt Junction, Sterling, Worcester County, Massachusetts, 01564, United States",
    "city": "Sterling",
    "state": "Massachusetts",
    "coordinates": {
      "lat": 42.4643312,
      "lng": -71.74889
    },
    "hours": "24/7",
    "phone": "",
    "description": "Little Free Pantry - Take what you need, leave what you can"
  },
  {
    "name": "Kitchener 5",
    "type": "food_box",
    "id": "little-pantry-1740",
    "address": "5, Kitchener Road, Pratt Junction, Sterling, Worcester County, Massachusetts, 01564, United States",
    "city": "Sterling",
    "state": "Massachusetts",
    "coordinates": {
      "lat": 42.4648198,
      "lng": -71.7484531
    },
    "hours": "24/7",
    "phone": "",
    "description": "Little Free Pantry - Take what you need, leave what you can"
  },
  {
    "name": "Kitchener 4",
    "type": "food_box",
    "id": "little-pantry-1741",
    "address": "4, Kitchener Road, Pratt Junction, Sterling, Worcester County, Massachusetts, 01564, United States",
    "city": "Sterling",
    "state": "Massachusetts",
    "coordinates": {
      "lat": 42.4640845,
      "lng": -71.7480698
    },
    "hours": "24/7",
    "phone": "",
    "description": "Little Free Pantry - Take what you need, leave what you can"
  },
  {
    "name": "Kitchener 3",
    "type": "food_box",
    "id": "little-pantry-1742",
    "address": "3, Kitchener Street, Eagleville, Tiverton, Newport County, Rhode Island, 02878, United States",
    "city": "Tiverton",
    "state": "Rhode Island",
    "coordinates": {
      "lat": 41.6606772,
      "lng": -71.1528589
    },
    "hours": "24/7",
    "phone": "",
    "description": "Little Free Pantry - Take what you need, leave what you can"
  },
  {
    "name": "Kitchener 2",
    "type": "food_box",
    "id": "little-pantry-1743",
    "address": "2, Kitchener Street, Eagleville, Tiverton, Newport County, Rhode Island, 02878, United States",
    "city": "Tiverton",
    "state": "Rhode Island",
    "coordinates": {
      "lat": 41.660844,
      "lng": -71.152844
    },
    "hours": "24/7",
    "phone": "",
    "description": "Little Free Pantry - Take what you need, leave what you can"
  },
  {
    "name": "Kitchener 1",
    "type": "food_box",
    "id": "little-pantry-1744",
    "address": "1, Kitchener Road, Pratt Junction, Sterling, Worcester County, Massachusetts, 01564, United States",
    "city": "Sterling",
    "state": "Massachusetts",
    "coordinates": {
      "lat": 42.4645449,
      "lng": -71.7481698
    },
    "hours": "24/7",
    "phone": "",
    "description": "Little Free Pantry - Take what you need, leave what you can"
  },
  {
    "name": "Valley Christian Church",
    "type": "food_box",
    "id": "little-pantry-1748",
    "address": "Valley Christian Church, 9621, Dixie Highway, Johnsontown, Louisville, Jefferson County, Kentucky, 40272, United States",
    "city": "Louisville",
    "state": "Kentucky",
    "coordinates": {
      "lat": 38.1156472,
      "lng": -85.8599798
    },
    "hours": "24/7",
    "phone": "",
    "description": "Little Free Pantry - Take what you need, leave what you can"
  },
  {
    "name": "Mountain View Church of the Nazarene",
    "type": "food_box",
    "id": "little-pantry-1751",
    "address": "Mountain View Church of the Nazarene, 26515, Wilder, Canyon County, Idaho, 83676, United States",
    "city": "Wilder",
    "state": "Idaho",
    "coordinates": {
      "lat": 43.6314039,
      "lng": -116.9228164
    },
    "hours": "24/7",
    "phone": "",
    "description": "Little Free Pantry - Take what you need, leave what you can"
  },
  {
    "name": "Wilson",
    "type": "food_box",
    "id": "little-pantry-1762",
    "address": "Wilson County, Texas, United States",
    "city": "",
    "state": "Texas",
    "coordinates": {
      "lat": 29.1589961,
      "lng": -98.1251465
    },
    "hours": "24/7",
    "phone": "",
    "description": "Little Free Pantry - Take what you need, leave what you can"
  },
  {
    "name": "Purple Pantry",
    "type": "food_box",
    "id": "little-pantry-1771",
    "address": "Tiny Purple Pantry, 11th Street, Park Slope, Brooklyn, Kings County, City of New York, New York, 11215, United States",
    "city": "City of New York",
    "state": "New York",
    "coordinates": {
      "lat": 40.6702071,
      "lng": -73.9917883
    },
    "hours": "24/7",
    "phone": "",
    "description": "Little Free Pantry - Take what you need, leave what you can"
  },
  {
    "name": "Little Free Pantry - First Presbyterian Church of Englewood",
    "type": "food_box",
    "id": "little-pantry-1798",
    "address": "First Presbyterian Church of Englewood, 3500, South Logan Street, Englewood, Arapahoe County, Colorado, 80113, United States",
    "city": "Englewood",
    "state": "Colorado",
    "coordinates": {
      "lat": 39.6528081,
      "lng": -104.982541
    },
    "hours": "24/7",
    "phone": "",
    "description": "Little Free Pantry - Take what you need, leave what you can"
  },
  {
    "name": "Cross of Glory Lutheran Church",
    "type": "food_box",
    "id": "little-pantry-1805",
    "address": "Cross of Glory Lutheran Church, South Cedar Road, Victoria Crossing, Lockport, Will County, Illinois, 60441, United States",
    "city": "Lockport",
    "state": "Illinois",
    "coordinates": {
      "lat": 41.5906503,
      "lng": -87.9773682
    },
    "hours": "24/7",
    "phone": "",
    "description": "Little Free Pantry - Take what you need, leave what you can"
  },
  {
    "name": "Little Free Pantry - Bethlehem NH",
    "type": "food_box",
    "id": "little-pantry-1806",
    "address": "Bethlehem, Grafton County, New Hampshire, 03574, United States",
    "city": "Bethlehem",
    "state": "New Hampshire",
    "coordinates": {
      "lat": 44.2804632,
      "lng": -71.6869928
    },
    "hours": "24/7",
    "phone": "",
    "description": "Little Free Pantry - Take what you need, leave what you can"
  },
  {
    "name": "Reedy Wv",
    "type": "food_box",
    "id": "little-pantry-1812",
    "address": "Reedy, Roane County, West Virginia, United States",
    "city": "Reedy",
    "state": "West Virginia",
    "coordinates": {
      "lat": 38.8995287,
      "lng": -81.4248433
    },
    "hours": "24/7",
    "phone": "",
    "description": "Little Free Pantry - Take what you need, leave what you can"
  },
  {
    "name": "Linwood Community Fridge",
    "type": "food_box",
    "id": "little-pantry-1819",
    "address": "Linwood Community Fridge, 123, North Linwood Avenue, Patterson Park, Baltimore, Maryland, 21224, United States",
    "city": "Baltimore",
    "state": "Maryland",
    "coordinates": {
      "lat": 39.2938723,
      "lng": -76.5762204
    },
    "hours": "24/7",
    "phone": "",
    "description": "Little Free Pantry - Take what you need, leave what you can"
  },
  {
    "name": "ELM STREET",
    "type": "food_box",
    "id": "little-pantry-1825",
    "address": "Elm Street, Markley Street, Norristown, Montgomery County, Pennsylvania, 19401, United States",
    "city": "Norristown",
    "state": "Pennsylvania",
    "coordinates": {
      "lat": 40.1208026,
      "lng": -75.344984
    },
    "hours": "24/7",
    "phone": "",
    "description": "Little Free Pantry - Take what you need, leave what you can"
  },
  {
    "name": "Starbucks Marshall St",
    "type": "food_box",
    "id": "little-pantry-1826",
    "address": "Starbucks, 177, Marshall Street, University Hill, City of Syracuse, Onondaga County, New York, 13210, United States",
    "city": "City of Syracuse",
    "state": "New York",
    "coordinates": {
      "lat": 43.0417204,
      "lng": -76.1346141
    },
    "hours": "24/7",
    "phone": "",
    "description": "Little Free Pantry - Take what you need, leave what you can"
  },
  {
    "name": "Mont Alto Pa",
    "type": "food_box",
    "id": "little-pantry-1835",
    "address": "USA Limoges, 28, Rue de Saint-Gence, Beaublanc, Corgnac, Le Mas Blanc, Limoges, Haute-Vienne, Nouvelle-Aquitaine, France métropolitaine, 87100, France",
    "city": "Limoges",
    "state": "Nouvelle-Aquitaine",
    "coordinates": {
      "lat": 45.8463258,
      "lng": 1.2387623
    },
    "hours": "24/7",
    "phone": "",
    "description": "Little Free Pantry - Take what you need, leave what you can"
  },
  {
    "name": "HCM Thrift",
    "type": "food_box",
    "id": "little-pantry-1840",
    "address": "HCM Thrift Store, 520, Granite Avenue, Fredericksburg, Gillespie County, Texas, 78624, United States",
    "city": "Fredericksburg",
    "state": "Texas",
    "coordinates": {
      "lat": 30.2666476,
      "lng": -98.8720474
    },
    "hours": "24/7",
    "phone": "",
    "description": "Little Free Pantry - Take what you need, leave what you can"
  },
  {
    "name": "First Presbyterian Church Denton, TX",
    "type": "food_box",
    "id": "little-pantry-1841",
    "address": "First Presbyterian Church, 1114, West University Drive, Denton, Denton County, Texas, 76201, United States",
    "city": "Denton",
    "state": "Texas",
    "coordinates": {
      "lat": 33.2303555,
      "lng": -97.1434294
    },
    "hours": "24/7",
    "phone": "",
    "description": "Little Free Pantry - Take what you need, leave what you can"
  },
  {
    "name": "St Peter's Episcopal Church",
    "type": "food_box",
    "id": "little-pantry-1857",
    "address": "Saint Peter's Episcopal Church, 99, State Street, Downtown, City of Albany, Albany County, New York, 12207, United States",
    "city": "City of Albany",
    "state": "New York",
    "coordinates": {
      "lat": 42.6509574,
      "lng": -73.7540384
    },
    "hours": "24/7",
    "phone": "",
    "description": "Little Free Pantry - Take what you need, leave what you can"
  },
  {
    "name": "Helping Hands",
    "type": "food_box",
    "id": "little-pantry-1860",
    "address": "Helping Hands, Aiken, Aiken County, South Carolina, United States",
    "city": "Aiken",
    "state": "South Carolina",
    "coordinates": {
      "lat": 33.5670942,
      "lng": -81.730513
    },
    "hours": "24/7",
    "phone": "",
    "description": "Little Free Pantry - Take what you need, leave what you can"
  },
  {
    "name": "Free pantry",
    "type": "food_box",
    "id": "little-pantry-1870",
    "address": "Free Pantry, West Market Avenue, Legacy Park, Searcy, White County, Arkansas, 72143, United States",
    "city": "Searcy",
    "state": "Arkansas",
    "coordinates": {
      "lat": 35.2495292,
      "lng": -91.7404377
    },
    "hours": "24/7",
    "phone": "",
    "description": "Little Free Pantry - Take what you need, leave what you can"
  },
  {
    "name": "DD Wash N Dry",
    "type": "food_box",
    "id": "little-pantry-1873",
    "address": "North Dry Wash Lane, Yavapai County, Arizona, 86315, United States",
    "city": "",
    "state": "Arizona",
    "coordinates": {
      "lat": 34.68421,
      "lng": -112.2071207
    },
    "hours": "24/7",
    "phone": "",
    "description": "Little Free Pantry - Take what you need, leave what you can"
  },
  {
    "name": "🌼Helping Hands🌼",
    "type": "food_box",
    "id": "little-pantry-1874",
    "address": "Helping Hands, Aiken, Aiken County, South Carolina, United States",
    "city": "Aiken",
    "state": "South Carolina",
    "coordinates": {
      "lat": 33.5670942,
      "lng": -81.730513
    },
    "hours": "24/7",
    "phone": "",
    "description": "Little Free Pantry - Take what you need, leave what you can"
  },
  {
    "name": "Moreland Presbyterian Church",
    "type": "food_box",
    "id": "little-pantry-1875",
    "address": "Moreland Presbyterian Church, 1814, Southeast Bybee Boulevard, Westmoreland, Sellwood-Moreland, Portland, Multnomah County, Oregon, 97202, United States",
    "city": "Portland",
    "state": "Oregon",
    "coordinates": {
      "lat": 45.4735878,
      "lng": -122.6463992
    },
    "hours": "24/7",
    "phone": "",
    "description": "Little Free Pantry - Take what you need, leave what you can"
  },
  {
    "name": "YMCA",
    "type": "food_box",
    "id": "little-pantry-1879",
    "address": "YMCA, Tulsa, Tulsa County, Oklahoma, 74107, United States",
    "city": "Tulsa",
    "state": "Oklahoma",
    "coordinates": {
      "lat": 36.0839689,
      "lng": -96.0027321
    },
    "hours": "24/7",
    "phone": "",
    "description": "Little Free Pantry - Take what you need, leave what you can"
  },
  {
    "name": "Phoenixville Area Community Services",
    "type": "food_box",
    "id": "little-pantry-1880",
    "address": "Phoenixville Area Community Services, Gay Street, Phoenixville, Chester County, Pennsylvania, 19460, United States",
    "city": "Phoenixville",
    "state": "Pennsylvania",
    "coordinates": {
      "lat": 40.132782,
      "lng": -75.5181056
    },
    "hours": "24/7",
    "phone": "",
    "description": "Little Free Pantry - Take what you need, leave what you can"
  },
  {
    "name": "Lighthouse",
    "type": "food_box",
    "id": "little-pantry-1902",
    "address": "Lighthouse, Eagle, Ada County, Idaho, United States",
    "city": "Eagle",
    "state": "Idaho",
    "coordinates": {
      "lat": 43.7197089,
      "lng": -116.3679634
    },
    "hours": "24/7",
    "phone": "",
    "description": "Little Free Pantry - Take what you need, leave what you can"
  },
  {
    "name": "Clementine",
    "type": "food_box",
    "id": "little-pantry-1904",
    "address": "Clementine, Phelps County, Missouri, United States",
    "city": "",
    "state": "Missouri",
    "coordinates": {
      "lat": 37.8764419,
      "lng": -92.0175729
    },
    "hours": "24/7",
    "phone": "",
    "description": "Little Free Pantry - Take what you need, leave what you can"
  },
  {
    "name": "All Saints Lutheran Church",
    "type": "food_box",
    "id": "little-pantry-1905",
    "address": "All Saints Lutheran Church, Bellevue, King County, Washington, United States",
    "city": "Bellevue",
    "state": "Washington",
    "coordinates": {
      "lat": 47.6579897,
      "lng": -122.1441038
    },
    "hours": "24/7",
    "phone": "",
    "description": "Little Free Pantry - Take what you need, leave what you can"
  },
  {
    "name": "Morningside Farms",
    "type": "food_box",
    "id": "little-pantry-1908",
    "address": "Morningside Drive South, Greens Farms, Westport, Western Connecticut Planning Region, Connecticut, 06880, United States",
    "city": "Westport",
    "state": "Connecticut",
    "coordinates": {
      "lat": 41.1294277,
      "lng": -73.3223672
    },
    "hours": "24/7",
    "phone": "",
    "description": "Little Free Pantry - Take what you need, leave what you can"
  },
  {
    "name": "Little Free Pantry - West Oshkosh",
    "type": "food_box",
    "id": "little-pantry-1909",
    "address": "Carpetland USA, 1700, West South Park Avenue, Oshkosh, Winnebago County, Wisconsin, 54902, United States",
    "city": "Oshkosh",
    "state": "Wisconsin",
    "coordinates": {
      "lat": 43.9941614,
      "lng": -88.5771745
    },
    "hours": "24/7",
    "phone": "",
    "description": "Little Free Pantry - Take what you need, leave what you can"
  },
  {
    "name": "Immanuel United Methodist Church",
    "type": "food_box",
    "id": "little-pantry-1924",
    "address": "Immanuel United Methodist Church, Des Moines, Polk County, Iowa, United States",
    "city": "Des Moines",
    "state": "Iowa",
    "coordinates": {
      "lat": 41.6207816,
      "lng": -93.6859427
    },
    "hours": "24/7",
    "phone": "",
    "description": "Little Free Pantry - Take what you need, leave what you can"
  },
  {
    "name": "BuurtKastje Culemborg - Kamille 72",
    "type": "food_box",
    "id": "little-pantry-1926",
    "address": "Kamille Court, Bernal Dwellings, Mission District, San Francisco, California, 94110, United States",
    "city": "San Francisco",
    "state": "California",
    "coordinates": {
      "lat": 37.7488867,
      "lng": -122.4126016
    },
    "hours": "24/7",
    "phone": "",
    "description": "Little Free Pantry - Take what you need, leave what you can"
  },
  {
    "name": "Baber",
    "type": "food_box",
    "id": "little-pantry-1947",
    "address": "Baber, Logan County, West Virginia, 25505, United States",
    "city": "",
    "state": "West Virginia",
    "coordinates": {
      "lat": 38.0084322,
      "lng": -82.0456857
    },
    "hours": "24/7",
    "phone": "",
    "description": "Little Free Pantry - Take what you need, leave what you can"
  },
  {
    "name": "Little Pantry-Saint Matthew's Church, Maple Glen, PA",
    "type": "food_box",
    "id": "little-pantry-1954",
    "address": "Maple Glen, Horsham, Horsham Township, Montgomery County, Pennsylvania, 19044, United States",
    "city": "Horsham Township",
    "state": "Pennsylvania",
    "coordinates": {
      "lat": 40.178412,
      "lng": -75.1778197
    },
    "hours": "24/7",
    "phone": "",
    "description": "Little Free Pantry - Take what you need, leave what you can"
  },
  {
    "name": "First Baptist Church of Edwardsville",
    "type": "food_box",
    "id": "little-pantry-1966",
    "address": "First Baptist Church of Edwardsville, 534, Saint Louis Street, Edwardsville, Madison County, Illinois, 62025, United States",
    "city": "Edwardsville",
    "state": "Illinois",
    "coordinates": {
      "lat": 38.8106448,
      "lng": -89.9622877
    },
    "hours": "24/7",
    "phone": "",
    "description": "Little Free Pantry - Take what you need, leave what you can"
  },
  {
    "name": "Artisan Church",
    "type": "food_box",
    "id": "little-pantry-1978",
    "address": "Artisan Church, 1235, South Clinton Avenue, Swillburg, City of Rochester, Monroe County, New York, 14620, United States",
    "city": "City of Rochester",
    "state": "New York",
    "coordinates": {
      "lat": 43.1341546,
      "lng": -77.5921852
    },
    "hours": "24/7",
    "phone": "",
    "description": "Little Free Pantry - Take what you need, leave what you can"
  },
  {
    "name": "People First Pantry",
    "type": "food_box",
    "id": "little-pantry-1987",
    "address": "The People First Food Pantry, 19, Douglas Street, Uxbridge, Worcester County, Massachusetts, 01538, United States",
    "city": "Uxbridge",
    "state": "Massachusetts",
    "coordinates": {
      "lat": 42.0769546,
      "lng": -71.6313926
    },
    "hours": "24/7",
    "phone": "",
    "description": "Little Free Pantry - Take what you need, leave what you can"
  },
  {
    "name": "The Little Free Pantry, Westborough, MA",
    "type": "food_box",
    "id": "little-pantry-1993",
    "address": "Westborough, Worcester County, Massachusetts, 01581, United States",
    "city": "Westborough",
    "state": "Massachusetts",
    "coordinates": {
      "lat": 42.2694308,
      "lng": -71.6129907
    },
    "hours": "24/7",
    "phone": "",
    "description": "Little Free Pantry - Take what you need, leave what you can"
  }
]