[
  {
    "name": "Spottswood Neighborhood Pantry",
    "lat": 47.5412,
    "lng": -122.3958,
    "city": "Seattle",
    "state": "WA",
    "address": "Seattle, WA",
    "description": "Little Free Pantry - Take what you need, leave what you can",
    "hours": "24/7",
    "phone": "",
    "type": "food_box",
    "id": "little-pantry-1"
  },
  {
    "name": "Alaska Junction Little Free Pantry",
    "lat": 47.5665,
    "lng": -122.3867,
    "city": "Seattle",
    "state": "WA",
    "address": "Seattle, WA",
    "description": "Little Free Pantry - Take what you need, leave what you can",
    "hours": "24/7",
    "phone": "",
    "type": "food_box",
    "id": "little-pantry-2"
  },
  {
    "name": "Kindness Cabinet",
    "lat": 47.6587,
    "lng": -122.3173,
    "city": "Seattle",
    "state": "WA",
    "address": "Seattle, WA",
    "description": "Little Free Pantry - Take what you need, leave what you can",
    "hours": "24/7",
    "phone": "",
    "type": "food_box",
    "id": "little-pantry-3"
  },
  {
    "name": "Water Ave Pantry",
    "lat": 45.5053,
    "lng": -122.6572,
    "city": "Portland",
    "state": "OR",
    "address": "Portland, OR",
    "description": "Little Free Pantry - Take what you need, leave what you can",
    "hours": "24/7",
    "phone": "",
    "type": "food_box",
    "id": "little-pantry-4"
  },
  {
    "name": "Little Free Pantry PDX",
    "lat": 45.5231,
    "lng": -122.6765,
    "city": "Portland",
    "state": "OR",
    "address": "Portland, OR",
    "description": "Little Free Pantry - Take what you need, leave what you can",
    "hours": "24/7",
    "phone": "",
    "type": "food_box",
    "id": "little-pantry-5"
  },
  {
    "name": "Unitarian Universalist San Mateo",
    "lat": 37.5428,
    "lng": -122.3108,
    "city": "San Mateo",
    "state": "CA",
    "address": "San Mateo, CA",
    "description": "Little Free Pantry - Take what you need, leave what you can",
    "hours": "24/7",
    "phone": "",
    "type": "food_box",
    "id": "little-pantry-6"
  },
  {
    "name": "Little Blue Pantry",
    "lat": 37.8044,
    "lng": -122.2712,
    "city": "Oakland",
    "state": "CA",
    "address": "Oakland, CA",
    "description": "Little Free Pantry - Take what you need, leave what you can",
    "hours": "24/7",
    "phone": "",
    "type": "food_box",
    "id": "little-pantry-7"
  },
  {
    "name": "Little Free Pantry Norwalk",
    "lat": 33.9022,
    "lng": -118.0817,
    "city": "Norwalk",
    "state": "CA",
    "address": "Norwalk, CA",
    "description": "Little Free Pantry - Take what you need, leave what you can",
    "hours": "24/7",
    "phone": "",
    "type": "food_box",
    "id": "little-pantry-8"
  },
  {
    "name": "Budlong Woods Little Free Pantry",
    "lat": 41.9828,
    "lng": -87.6923,
    "city": "Chicago",
    "state": "IL",
    "address": "Chicago, IL",
    "description": "Little Free Pantry - Take what you need, leave what you can",
    "hours": "24/7",
    "phone": "",
    "type": "food_box",
    "id": "little-pantry-9"
  },
  {
    "name": "Little Free Pantry Chicago",
    "lat": 41.8781,
    "lng": -87.6298,
    "city": "Chicago",
    "state": "IL",
    "address": "Chicago, IL",
    "description": "Little Free Pantry - Take what you need, leave what you can",
    "hours": "24/7",
    "phone": "",
    "type": "food_box",
    "id": "little-pantry-10"
  },
  {
    "name": "Patterson Park Little Pantry",
    "lat": 40.7128,
    "lng": -73.9569,
    "city": "Brooklyn",
    "state": "NY",
    "address": "Brooklyn, NY",
    "description": "Little Free Pantry - Take what you need, leave what you can",
    "hours": "24/7",
    "phone": "",
    "type": "food_box",
    "id": "little-pantry-11"
  },
  {
    "name": "Little Free Pantry Austin",
    "lat": 30.2672,
    "lng": -97.7431,
    "city": "Austin",
    "state": "TX",
    "address": "Austin, TX",
    "description": "Little Free Pantry - Take what you need, leave what you can",
    "hours": "24/7",
    "phone": "",
    "type": "food_box",
    "id": "little-pantry-12"
  },
  {
    "name": "Little Free Pantry Denver",
    "lat": 39.7392,
    "lng": -104.9903,
    "city": "Denver",
    "state": "CO",
    "address": "Denver, CO",
    "description": "Little Free Pantry - Take what you need, leave what you can",
    "hours": "24/7",
    "phone": "",
    "type": "food_box",
    "id": "little-pantry-13"
  },
  {
    "name": "Little Free Pantry Phoenix",
    "lat": 33.4484,
    "lng": -112.074,
    "city": "Phoenix",
    "state": "AZ",
    "address": "Phoenix, AZ",
    "description": "Little Free Pantry - Take what you need, leave what you can",
    "hours": "24/7",
    "phone": "",
    "type": "food_box",
    "id": "little-pantry-14"
  },
  {
    "name": "Little Free Pantry Miami",
    "lat": 25.7617,
    "lng": -80.1918,
    "city": "Miami",
    "state": "FL",
    "address": "Miami, FL",
    "description": "Little Free Pantry - Take what you need, leave what you can",
    "hours": "24/7",
    "phone": "",
    "type": "food_box",
    "id": "little-pantry-15"
  }
]