{
  "denver": [
    {
      "id": 1,
    "name": "Fort Greene Bar Community Fridge",
    "type": "community_fridge",
    "address": "321 E 45th Ave",
    "city": "Denver",
    "state": "CO",
    "zipCode": "80216",
    "coordinates": {
      "lat": 39.7796,
      "lng": -104.9617
    },
    "hours": "24/7 Access",
    "phone": null,
    "description": "Community fridge open to the public 24/7. Take what you need, leave what you can. Part of Denver Community Fridges."
  },
  {
    "id": 2,
    "name": "Denver Dream Center Community Fridge",
    "type": "community_fridge",
    "address": "2758 Welton St",
    "city": "Denver",
    "state": "CO",
    "zipCode": "80205",
    "coordinates": {
      "lat": 39.7565,
      "lng": -104.9758
    },
    "hours": "24/7 Access",
    "phone": null,
    "description": "Free community fridge accessible anytime. Stocked with fresh and prepared foods. Part of Denver Community Fridges network."
  },
  {
    "id": 3,
    "name": "Re:Vision Community Fridge",
    "type": "community_fridge",
    "address": "3800 Morrison Rd",
    "city": "Denver",
    "state": "CO",
    "zipCode": "80219",
    "coordinates": {
      "lat": 39.7107,
      "lng": -105.0334
    },
    "hours": "24/7 Access",
    "phone": null,
    "description": "Community-maintained fridge open 24/7. Take what you need, share what you can. Part of Denver Community Fridges."
  },
  {
    "id": 4,
    "name": "Seventh Circle Music Collective Fridge",
    "type": "community_fridge",
    "address": "2935 W 7th Ave",
    "city": "Denver",
    "state": "CO",
    "zipCode": "80204",
    "coordinates": {
      "lat": 39.7285,
      "lng": -105.0208
    },
    "hours": "24/7 Access",
    "phone": null,
    "description": "Free community fridge accessible 24/7. Fresh and prepared foods available. Part of Denver Community Fridges."
  },
  {
    "id": 5,
    "name": "Food Bank of the Rockies",
    "type": "foodbank",
    "address": "10700 E 45th Ave",
    "city": "Denver",
    "state": "CO",
    "zipCode": "80239",
    "coordinates": {
      "lat": 39.7797,
      "lng": -104.8686
    },
    "hours": "Mon-Fri: 8am-4pm",
    "phone": "(303) 371-9250",
    "description": "Colorado's largest hunger-relief organization. Provides food assistance and nutrition education programs."
  },
  {
    "id": 6,
    "name": "Metro Caring",
    "type": "foodbank",
    "address": "1100 E 18th Ave",
    "city": "Denver",
    "state": "CO",
    "zipCode": "80218",
    "coordinates": {
      "lat": 39.7444,
      "lng": -104.9733
    },
    "hours": "Mon, Wed, Fri: 10am-1pm",
    "phone": "(303) 860-7200",
    "description": "Emergency food, clothing, and financial assistance for Denver residents. No appointment necessary."
  },
  {
    "id": 7,
    "name": "Denver Blessing Box - City Park",
    "type": "food_box",
    "address": "E 17th Ave & York St",
    "city": "Denver",
    "state": "CO",
    "zipCode": "80206",
    "coordinates": {
      "lat": 39.7431,
      "lng": -104.9621
    },
    "hours": "24/7 Access",
    "phone": null,
    "description": "Community blessing box with non-perishable food items. Take what you need, give what you can."
  },
  {
    "id": 8,
    "name": "Father Woody's Haven of Hope",
    "type": "foodbank",
    "address": "2323 Curtis St",
    "city": "Denver",
    "state": "CO",
    "zipCode": "80205",
    "coordinates": {
      "lat": 39.7541,
      "lng": -104.9821
    },
    "hours": "Mon-Fri: 8am-4pm, Sat: 9am-2pm",
    "phone": "(303) 297-1276",
    "description": "Serves meals and provides groceries to individuals and families experiencing homelessness or food insecurity."
  },
  {
    "id": 9,
    "name": "Struggle of Love Foundation",
    "type": "foodbank",
    "address": "1306 N Emerson St",
    "city": "Denver",
    "state": "CO",
    "zipCode": "80218",
    "coordinates": {
      "lat": 39.7372,
      "lng": -104.9646
    },
    "hours": "Mon-Fri: 10am-2pm",
    "phone": "(303) 860-2288",
    "description": "Provides food, clothing, and supportive services to neighbors in need. Walk-ins welcome."
  },
  {
    "id": 10,
    "name": "Community Blessing Box - Sloan's Lake",
    "type": "food_box",
    "address": "W 26th Ave & Sheridan Blvd",
    "city": "Denver",
    "state": "CO",
    "zipCode": "80214",
    "coordinates": {
      "lat": 39.7521,
      "lng": -105.0524
    },
    "hours": "24/7 Access",
    "phone": null,
    "description": "Free community food box with non-perishable items. Always open, no questions asked."
  },
  {
    "id": 11,
    "name": "5th and Marion Food Box",
    "type": "food_box",
    "address": "E 5th Ave between Marion & Lafayette",
    "city": "Denver",
    "state": "CO",
    "zipCode": "80218",
    "coordinates": {
      "lat": 39.723704653142185,
      "lng": -104.97151136398317
    },
    "hours": "24/7 Access",
    "phone": null,
    "description": "Food box on south side of 5th between Marion and Lafayette."
  },
  {
    "id": 12,
    "name": "Our Savior's Lutheran Church Food Box",
    "type": "food_box",
    "address": "Emerson St",
    "city": "Denver",
    "state": "CO",
    "zipCode": "80218",
    "coordinates": {
      "lat": 39.730770159014135,
      "lng": -104.97640907764436
    },
    "hours": "24/7 Access",
    "phone": null,
    "description": "Community food box at Our Savior's Lutheran Church."
  }
  ],
  "seattle": [
    {
      "id": 1,
      "name": "Ballard Community Fridge",
      "type": "community_fridge",
      "address": "2030 NW 56th St",
      "city": "Seattle",
      "state": "WA",
      "zipCode": "98107",
      "coordinates": {
        "lat": 47.6699,
        "lng": -122.3828
      },
      "hours": "24/7 Access",
      "phone": null,
      "description": "Free community fridge accessible 24/7. Take what you need, leave what you can."
    },
    {
      "id": 2,
      "name": "Capitol Hill Community Fridge",
      "type": "community_fridge",
      "address": "1400 E Pine St",
      "city": "Seattle",
      "state": "WA",
      "zipCode": "98122",
      "coordinates": {
        "lat": 47.6147,
        "lng": -122.3141
      },
      "hours": "24/7 Access",
      "phone": null,
      "description": "Community-maintained fridge with fresh and prepared foods. Open 24/7 for all."
    },
    {
      "id": 3,
      "name": "Georgetown Community Fridge",
      "type": "community_fridge",
      "address": "5800 Airport Way S",
      "city": "Seattle",
      "state": "WA",
      "zipCode": "98108",
      "coordinates": {
        "lat": 47.5493,
        "lng": -122.3179
      },
      "hours": "24/7 Access",
      "phone": null,
      "description": "Free community fridge in Georgetown. Take what you need, share what you can."
    },
    {
      "id": 4,
      "name": "University District Community Fridge",
      "type": "community_fridge",
      "address": "4534 University Way NE",
      "city": "Seattle",
      "state": "WA",
      "zipCode": "98105",
      "coordinates": {
        "lat": 47.6614,
        "lng": -122.3128
      },
      "hours": "24/7 Access",
      "phone": null,
      "description": "Community fridge serving the U-District. Accessible 24/7 for all community members."
    },
    {
      "id": 5,
      "name": "Northwest Harvest - Sodo",
      "type": "foodbank",
      "address": "1900 4th Ave S",
      "city": "Seattle",
      "state": "WA",
      "zipCode": "98134",
      "coordinates": {
        "lat": 47.5827,
        "lng": -122.3324
      },
      "hours": "Mon-Fri: 9am-4pm",
      "phone": "(206) 923-3840",
      "description": "Washington's leading hunger relief agency. Provides groceries and fresh produce to families in need."
    },
    {
      "id": 6,
      "name": "FamilyWorks Food Bank",
      "type": "foodbank",
      "address": "4649 Sunnyside Ave N",
      "city": "Seattle",
      "state": "WA",
      "zipCode": "98103",
      "coordinates": {
        "lat": 47.6648,
        "lng": -122.3320
      },
      "hours": "Mon, Wed, Fri: 10am-3pm, Tue, Thu: 4pm-7pm",
      "phone": "(206) 694-6727",
      "description": "Provides emergency food, clothing, and support services. Serving Wallingford and surrounding neighborhoods."
    },
    {
      "id": 7,
      "name": "West Seattle Food Bank",
      "type": "foodbank",
      "address": "3419 SW Morgan St",
      "city": "Seattle",
      "state": "WA",
      "zipCode": "98126",
      "coordinates": {
        "lat": 47.5638,
        "lng": -122.3826
      },
      "hours": "Tue-Thu: 1pm-5pm, Sat: 10am-2pm",
      "phone": "(206) 932-9023",
      "description": "Community-based food bank serving West Seattle families. No ID or income verification required."
    },
    {
      "id": 8,
      "name": "University District Food Bank",
      "type": "foodbank",
      "address": "4731 15th Ave NE",
      "city": "Seattle",
      "state": "WA",
      "zipCode": "98105",
      "coordinates": {
        "lat": 47.6648,
        "lng": -122.3116
      },
      "hours": "Mon-Fri: 11am-6pm",
      "phone": "(206) 523-7060",
      "description": "Emergency food assistance for students and community members. Fresh produce and culturally diverse foods."
    },
    {
      "id": 9,
      "name": "Pike Place Market Blessing Box",
      "type": "food_box",
      "address": "Near Pike Place Market",
      "city": "Seattle",
      "state": "WA",
      "zipCode": "98101",
      "coordinates": {
        "lat": 47.6097,
        "lng": -122.3425
      },
      "hours": "24/7 Access",
      "phone": null,
      "description": "Community food box with non-perishable items. Located near Pike Place Market."
    },
    {
      "id": 10,
      "name": "Greenwood Blessing Box",
      "type": "food_box",
      "address": "N 85th St & Greenwood Ave N",
      "city": "Seattle",
      "state": "WA",
      "zipCode": "98103",
      "coordinates": {
        "lat": 47.6893,
        "lng": -122.3542
      },
      "hours": "24/7 Access",
      "phone": null,
      "description": "Free community food box. Take what you need, give what you can."
    }
  ]
}

