[
  {
    "name": "St. John's Breadline",
    "type": "foodbank",
    "address": "North 5th Street",
    "city": "Springfield",
    "state": "IL",
    "zipCode": "62702",
    "coordinates": {
      "lat": 39.8060697,
      "lng": -89.6488044
    },
    "hours": "Call for hours",
    "phone": "+1-217-528-6098",
    "description": "Food assistance location from OpenStreetMap community data.",
    "osm_id": "node/6549748758",
    "id": "osm-1"
  },
  {
    "name": "The Gathering at Running Rebels",
    "type": "foodbank",
    "address": "West Fond du Lac Avenue",
    "city": "Milwaukee",
    "state": "WI",
    "zipCode": "53205",
    "coordinates": {
      "lat": 43.0536464,
      "lng": -87.9285329
    },
    "hours": "Mo-Fr 08:30-09:30, 11:30-12:30",
    "phone": "+1 414 272 4122",
    "description": "Food assistance location from OpenStreetMap community data. Website: https://www.thegatheringwis.org/community-meal-program",
    "osm_id": "node/6641472438",
    "id": "osm-2"
  },
  {
    "name": "Saint Ben's Community Meal",
    "type": "foodbank",
    "address": "West State Street",
    "city": "Milwaukee",
    "state": "WI",
    "zipCode": "53233",
    "coordinates": {
      "lat": 43.043394,
      "lng": -87.9241191
    },
    "hours": "Su-Fr 17:15-18:30",
    "phone": "+1 414 271 0135",
    "description": "Food assistance location from OpenStreetMap community data. Website: https://www.capuchincommunityservices.org/services-provided/food",
    "osm_id": "node/6653455248",
    "id": "osm-3"
  },
  {
    "name": "Faith Cafe",
    "type": "foodbank",
    "address": "Southwest Watson Avenue",
    "city": "Beaverton",
    "state": "OR",
    "zipCode": "97005",
    "coordinates": {
      "lat": 45.4823146,
      "lng": -122.8068042
    },
    "hours": "Call for hours",
    "phone": null,
    "description": "Food assistance location from OpenStreetMap community data. Website: https://www.faithcafeor.org/",
    "osm_id": "node/7508507553",
    "id": "osm-4"
  },
  {
    "name": "Trenton Area Soup Kitchen",
    "type": "foodbank",
    "address": "Escher Street",
    "city": "Trenton",
    "state": "NJ",
    "zipCode": "08638",
    "coordinates": {
      "lat": 40.2281051,
      "lng": -74.753256
    },
    "hours": "Call for hours",
    "phone": null,
    "description": "Food assistance location from OpenStreetMap community data.",
    "osm_id": "node/7606277492",
    "id": "osm-5"
  },
  {
    "name": "La Comida",
    "type": "foodbank",
    "address": "East Charleston Road",
    "city": "Palo Alto",
    "state": "CA",
    "zipCode": "94306",
    "coordinates": {
      "lat": 37.4192624,
      "lng": -122.1135319
    },
    "hours": "Mo-Su 11:15-12:15",
    "phone": null,
    "description": "Food assistance location from OpenStreetMap community data. Website: https://www.lacomida.org/",
    "osm_id": "node/8512650145",
    "id": "osm-6"
  },
  {
    "name": "Feed the Mass",
    "type": "foodbank",
    "address": "Northwest Davis Street",
    "city": "Portland",
    "state": "OR",
    "zipCode": "97209",
    "coordinates": {
      "lat": 45.524356,
      "lng": -122.6708749
    },
    "hours": "Call for hours",
    "phone": null,
    "description": "Food assistance location from OpenStreetMap community data. Website: https://www.feedthemass.org/",
    "osm_id": "node/9785995427",
    "id": "osm-7"
  },
  {
    "name": "Project Open Hand",
    "type": "foodbank",
    "address": "Polk Street",
    "city": "San Francisco",
    "state": "CA",
    "zipCode": "94109",
    "coordinates": {
      "lat": 37.7839436,
      "lng": -122.4192113
    },
    "hours": "Call for hours",
    "phone": "+1 415 4472300",
    "description": "Food assistance location from OpenStreetMap community data. Website: https://openhand.org/",
    "osm_id": "node/9956258784",
    "id": "osm-8"
  },
  {
    "name": "Positive Community Kitchen",
    "type": "foodbank",
    "address": "Shelton McMurphey Boulevard",
    "city": "Eugene",
    "state": "OR",
    "zipCode": "97401",
    "coordinates": {
      "lat": 44.0557234,
      "lng": -123.0943021
    },
    "hours": "Mo 09:00-17:00; Tu 09:00-18:00; We 08:30-12:00",
    "phone": "+1 541 249 4942",
    "description": "Food assistance location from OpenStreetMap community data. Website: https://www.positivecommunitykitchen.org/",
    "osm_id": "node/10822983164",
    "id": "osm-9"
  },
  {
    "name": "Wheatheart Nutrition Project",
    "type": "foodbank",
    "address": "Main Street",
    "city": "Helena",
    "state": "OK",
    "zipCode": "73741",
    "coordinates": {
      "lat": 36.5469711,
      "lng": -98.2702529
    },
    "hours": "Call for hours",
    "phone": "+1 580 262 0303",
    "description": "Food assistance location from OpenStreetMap community data.",
    "osm_id": "node/11494708958",
    "id": "osm-10"
  },
  {
    "name": "Lawrence Meals on Wheels",
    "type": "foodbank",
    "address": "Kasold Drive",
    "city": "Lawrence",
    "state": "KS",
    "zipCode": "66047",
    "coordinates": {
      "lat": 38.9453173,
      "lng": -95.2800151
    },
    "hours": "Mo-Fr",
    "phone": "+1-785-830-8844",
    "description": "Food assistance location from OpenStreetMap community data. Website: https://www.lawrencemow.org/",
    "osm_id": "node/11505260184",
    "id": "osm-11"
  },
  {
    "name": "Free Sunday Meal at Plymouth Congregational Church",
    "type": "foodbank",
    "address": "Nicollet Avenue",
    "city": "Minneapolis",
    "state": "MN",
    "zipCode": "55403",
    "coordinates": {
      "lat": 44.9638323,
      "lng": -93.2785059
    },
    "hours": "Su[2,3] 17:00-18:00",
    "phone": null,
    "description": "Food assistance location from OpenStreetMap community data.",
    "osm_id": "node/11919216900",
    "id": "osm-12"
  },
  {
    "name": "Free Sunday Meal at Hennepin Avenue United Methodist Church",
    "type": "foodbank",
    "address": "Groveland Avenue",
    "city": "Minneapolis",
    "state": "MN",
    "zipCode": "55403",
    "coordinates": {
      "lat": 44.9665436,
      "lng": -93.287533
    },
    "hours": "Su[1,5] 17:00-18:00",
    "phone": null,
    "description": "Food assistance location from OpenStreetMap community data.",
    "osm_id": "node/11919216901",
    "id": "osm-13"
  },
  {
    "name": "Free Sunday Meal at Westminster Presbyterian",
    "type": "foodbank",
    "address": "Marquette Avenue South",
    "city": "Minneapolis",
    "state": "MN",
    "zipCode": "55403",
    "coordinates": {
      "lat": 44.9713969,
      "lng": -93.2759089
    },
    "hours": "Su[4] 17:00-18:00",
    "phone": null,
    "description": "Food assistance location from OpenStreetMap community data.",
    "osm_id": "node/11919216902",
    "id": "osm-14"
  },
  {
    "name": "Food Assistance Location",
    "type": "foodbank",
    "address": "North 7th Street",
    "city": "Minneapolis",
    "state": "MN",
    "zipCode": "55405",
    "coordinates": {
      "lat": 44.983232,
      "lng": -93.2825671
    },
    "hours": "Mo-Th 10:00,13:00; Sa-Su 10:00",
    "phone": null,
    "description": "Food assistance location from OpenStreetMap community data. Website: https://sharingandcaringhands.org/day-services",
    "osm_id": "node/11961951062",
    "id": "osm-15"
  },
  {
    "name": "Loaves & Fishes: Peace House Free Meal",
    "type": "foodbank",
    "address": "Portland Avenue South",
    "city": "Minneapolis",
    "state": "MN",
    "zipCode": "55404",
    "coordinates": {
      "lat": 44.9645808,
      "lng": -93.2680026
    },
    "hours": "Mo-Fr 17:00-18:00",
    "phone": null,
    "description": "Food assistance location from OpenStreetMap community data. Website: https://www.loavesandfishesmn.org/community-meal-sites/peace-house-community",
    "osm_id": "node/11961968078",
    "id": "osm-16"
  },
  {
    "name": "Source Community Meal & Discussion",
    "type": "foodbank",
    "address": "Stevens Avenue South",
    "city": "Minneapolis",
    "state": "MN",
    "zipCode": "55408",
    "coordinates": {
      "lat": 44.9550963,
      "lng": -93.2751826
    },
    "hours": "Th 18:00-20:00",
    "phone": null,
    "description": "Food assistance location from OpenStreetMap community data. Website: https://sourcemn.org/programs",
    "osm_id": "node/11979176787",
    "id": "osm-17"
  },
  {
    "name": "Waite House Community Meal",
    "type": "foodbank",
    "address": "11th Avenue South",
    "city": "Minneapolis",
    "state": "MN",
    "zipCode": "55404",
    "coordinates": {
      "lat": 44.9598227,
      "lng": -93.2565568
    },
    "hours": "Mo-Th 11:00-12:30",
    "phone": null,
    "description": "Food assistance location from OpenStreetMap community data.",
    "osm_id": "node/11981558603",
    "id": "osm-18"
  },
  {
    "name": "Soup for You!",
    "type": "foodbank",
    "address": "East 31st Street",
    "city": "Minneapolis",
    "state": "MN",
    "zipCode": "55406",
    "coordinates": {
      "lat": 44.9472283,
      "lng": -93.2319398
    },
    "hours": "Mo-Fr 12:00-13:00",
    "phone": "+1-612-978-7974",
    "description": "Food assistance location from OpenStreetMap community data. Website: https://soupforyou.info",
    "osm_id": "node/11984276083",
    "id": "osm-19"
  },
  {
    "name": "Community Meal",
    "type": "foodbank",
    "address": "North Oak Park Avenue",
    "city": "Minneapolis",
    "state": "MN",
    "zipCode": "55411",
    "coordinates": {
      "lat": 44.9874346,
      "lng": -93.3023878
    },
    "hours": "Tu-Th 16:00-18:00",
    "phone": null,
    "description": "Food assistance location from OpenStreetMap community data.",
    "osm_id": "node/11984814581",
    "id": "osm-20"
  },
  {
    "name": "Food Assistance Location",
    "type": "foodbank",
    "address": "Park Avenue South",
    "city": "Minneapolis",
    "state": "MN",
    "zipCode": "55404",
    "coordinates": {
      "lat": 44.9586421,
      "lng": -93.265873
    },
    "hours": "Th 12:00-13:00; Tu 12:00",
    "phone": "+1-612-321-1967",
    "description": "Food assistance location from OpenStreetMap community data. Website: https://www.communitybridgempls.org/community-meal-food-pantry",
    "osm_id": "node/11989171089",
    "id": "osm-21"
  },
  {
    "name": "The Mary F. Frey Opportunity Center",
    "type": "foodbank",
    "address": "East 17th Street",
    "city": "Minneapolis",
    "state": "MN",
    "zipCode": "55404",
    "coordinates": {
      "lat": 44.9664378,
      "lng": -93.2628032
    },
    "hours": "Mo-Sa 07:00, 07:30, 11:30, 12:00",
    "phone": null,
    "description": "Food assistance location from OpenStreetMap community data.",
    "osm_id": "node/12001088135",
    "id": "osm-22"
  },
  {
    "name": "Loaves & Fishes: Life Center Free Meal",
    "type": "foodbank",
    "address": "Park Avenue South",
    "city": "Minneapolis",
    "state": "MN",
    "zipCode": "55404",
    "coordinates": {
      "lat": 44.9647792,
      "lng": -93.2654244
    },
    "hours": "Tu-Fr 13:00-15:00",
    "phone": null,
    "description": "Food assistance location from OpenStreetMap community data. Website: https://www.loavesandfishesmn.org/meal-locations/iccm-life-center",
    "osm_id": "node/12290675352",
    "id": "osm-23"
  },
  {
    "name": "FUS Free Meal",
    "type": "foodbank",
    "address": "Mount Curve Avenue",
    "city": "Minneapolis",
    "state": "MN",
    "zipCode": "55403",
    "coordinates": {
      "lat": 44.9672565,
      "lng": -93.2903657
    },
    "hours": "Su 11:30-12:15",
    "phone": null,
    "description": "Food assistance location from OpenStreetMap community data.",
    "osm_id": "node/12389302378",
    "id": "osm-24"
  },
  {
    "name": "After service meal at Hennepin United Methodist Church",
    "type": "foodbank",
    "address": "Groveland Avenue",
    "city": "Minneapolis",
    "state": "MN",
    "zipCode": "55403",
    "coordinates": {
      "lat": 44.9664742,
      "lng": -93.2875367
    },
    "hours": "Su 11:00-12:00",
    "phone": null,
    "description": "Food assistance location from OpenStreetMap community data.",
    "osm_id": "node/12586022145",
    "id": "osm-25"
  },
  {
    "name": "Cafe Racer Free Meal",
    "type": "foodbank",
    "address": "East 25th Street",
    "city": "Minneapolis",
    "state": "MN",
    "zipCode": "55406",
    "coordinates": {
      "lat": 44.9572297,
      "lng": -93.228549
    },
    "hours": "Mo[-1] 11:00-13:00",
    "phone": "+1-612-208-1695",
    "description": "Food assistance location from OpenStreetMap community data. Website: https://www.caferacermn.com/community-engagement",
    "osm_id": "node/12610192940",
    "id": "osm-26"
  },
  {
    "name": "Salem Lutheran Church Free Tuesday Meal",
    "type": "foodbank",
    "address": "North Dupont Avenue",
    "city": "Minneapolis",
    "state": "MN",
    "zipCode": "55412",
    "coordinates": {
      "lat": 45.031434,
      "lng": -93.2926949
    },
    "hours": "Tu 18:00",
    "phone": null,
    "description": "Food assistance location from OpenStreetMap community data.",
    "osm_id": "node/12610192953",
    "id": "osm-27"
  },
  {
    "name": "Mount Olivet Community Meals",
    "type": "foodbank",
    "address": "Knox Avenue South",
    "city": "Minneapolis",
    "state": "MN",
    "zipCode": "55419",
    "coordinates": {
      "lat": 44.9117802,
      "lng": -93.3014556
    },
    "hours": "Th 16:00-17:30",
    "phone": null,
    "description": "Food assistance location from OpenStreetMap community data.",
    "osm_id": "node/12767087362",
    "id": "osm-28"
  },
  {
    "name": "First Nations Kitchen Fee Meal",
    "type": "foodbank",
    "address": "Longfellow Avenue South",
    "city": "Minneapolis",
    "state": "MN",
    "zipCode": "55404",
    "coordinates": {
      "lat": 44.9467205,
      "lng": -93.2464991
    },
    "hours": "Su 16:00-17:00",
    "phone": null,
    "description": "Food assistance location from OpenStreetMap community data. Website: https://firstnationskitchen.org",
    "osm_id": "node/12767874751",
    "id": "osm-29"
  },
  {
    "name": "Gathering Meal at Mount Carmel",
    "type": "foodbank",
    "address": "West Center Street",
    "city": "Milwaukee",
    "state": "WI",
    "zipCode": "53222",
    "coordinates": {
      "lat": 43.0682357,
      "lng": -88.0177698
    },
    "hours": "Call for hours",
    "phone": null,
    "description": "Food assistance location from OpenStreetMap community data. Website: https://www.mountcarmelchurch.org/serve-our-community",
    "osm_id": "node/13259772273",
    "id": "osm-30"
  },
  {
    "name": "St. Francis of Assisi Kitchen",
    "type": "foodbank",
    "address": "Penn Avenue",
    "city": "Scranton",
    "state": "PA",
    "zipCode": "",
    "coordinates": {
      "lat": 41.4131483,
      "lng": -75.6616863
    },
    "hours": "Call for hours",
    "phone": null,
    "description": "Food assistance location from OpenStreetMap community data.",
    "osm_id": "way/45126011",
    "id": "osm-31"
  },
  {
    "name": "Our Daily Bread",
    "type": "foodbank",
    "address": "Race Street",
    "city": "Cincinnati",
    "state": "OH",
    "zipCode": "45202",
    "coordinates": {
      "lat": 39.1152917,
      "lng": -84.5178843
    },
    "hours": "Call for hours",
    "phone": null,
    "description": "Food assistance location from OpenStreetMap community data.",
    "osm_id": "way/53260794",
    "id": "osm-32"
  },
  {
    "name": "Capuchin Soup Kitchen",
    "type": "foodbank",
    "address": "",
    "city": "Detroit",
    "state": "MI",
    "zipCode": "48207",
    "coordinates": {
      "lat": 42.350978,
      "lng": -83.0127394
    },
    "hours": "Call for hours",
    "phone": null,
    "description": "Food assistance location from OpenStreetMap community data.",
    "osm_id": "way/59153362",
    "id": "osm-33"
  },
  {
    "name": "Teri Able Community Kitchen",
    "type": "foodbank",
    "address": "South Alameda Street",
    "city": "Carlsbad",
    "state": "NM",
    "zipCode": "88220",
    "coordinates": {
      "lat": 32.4165604,
      "lng": -104.2313053
    },
    "hours": "Mo-Fr 11:00-12:00",
    "phone": null,
    "description": "Food assistance location from OpenStreetMap community data.",
    "osm_id": "way/318619010",
    "id": "osm-34"
  },
  {
    "name": "Franciscan Kitchen",
    "type": "foodbank",
    "address": "South Preston Street",
    "city": "Louisville",
    "state": "KY",
    "zipCode": "",
    "coordinates": {
      "lat": 38.2432484,
      "lng": -85.7482595
    },
    "hours": "Call for hours",
    "phone": null,
    "description": "Food assistance location from OpenStreetMap community data. Website: https://franciscankitchen.org/",
    "osm_id": "way/334050954",
    "id": "osm-35"
  },
  {
    "name": "The Lord's Kitchen",
    "type": "foodbank",
    "address": "South 5th Street",
    "city": "Louisville",
    "state": "KY",
    "zipCode": "40208",
    "coordinates": {
      "lat": 38.209367,
      "lng": -85.7668231
    },
    "hours": "Call for hours",
    "phone": null,
    "description": "Food assistance location from OpenStreetMap community data.",
    "osm_id": "way/335692676",
    "id": "osm-36"
  },
  {
    "name": "Preble Street Resource Center",
    "type": "foodbank",
    "address": "Portland Street",
    "city": "Portland",
    "state": "ME",
    "zipCode": "04101",
    "coordinates": {
      "lat": 43.6587608,
      "lng": -70.2619564
    },
    "hours": "Call for hours",
    "phone": "+1-207-775-0026",
    "description": "Food assistance location from OpenStreetMap community data. Website: https://www.preblestreet.org/",
    "osm_id": "way/370490595",
    "id": "osm-37"
  },
  {
    "name": "St. John's Reformed Church",
    "type": "foodbank",
    "address": "Fairview Avenue",
    "city": "Jersey City",
    "state": "NJ",
    "zipCode": "07304",
    "coordinates": {
      "lat": 40.7227638,
      "lng": -74.070226
    },
    "hours": "Call for hours",
    "phone": null,
    "description": "Food assistance location from OpenStreetMap community data.",
    "osm_id": "way/417749830",
    "id": "osm-38"
  },
  {
    "name": "Let's Celebrate",
    "type": "foodbank",
    "address": "Fairview Avenue",
    "city": "Jersey City",
    "state": "NJ",
    "zipCode": "07304",
    "coordinates": {
      "lat": 40.722798,
      "lng": -74.0703767
    },
    "hours": "Call for hours",
    "phone": null,
    "description": "Food assistance location from OpenStreetMap community data.",
    "osm_id": "way/417749855",
    "id": "osm-39"
  },
  {
    "name": "Blessings Soup Kitchen",
    "type": "foodbank",
    "address": "East Main Street",
    "city": "Ottumwa",
    "state": "IA",
    "zipCode": "52501",
    "coordinates": {
      "lat": 41.016369,
      "lng": -92.41095
    },
    "hours": "Call for hours",
    "phone": null,
    "description": "Food assistance location from OpenStreetMap community data.",
    "osm_id": "way/484651157",
    "id": "osm-40"
  },
  {
    "name": "Liberty House",
    "type": "foodbank",
    "address": "West Baker Street",
    "city": "Manchester",
    "state": "NH",
    "zipCode": "03103",
    "coordinates": {
      "lat": 42.9724925,
      "lng": -71.4649144
    },
    "hours": "Call for hours",
    "phone": "+1-603-669-0761",
    "description": "Food assistance location from OpenStreetMap community data. Website: https://libertyhousenh.org/",
    "osm_id": "way/507708654",
    "id": "osm-41"
  },
  {
    "name": "Capuchin Soup Kitchen",
    "type": "foodbank",
    "address": "Conner Street",
    "city": "Detroit",
    "state": "MI",
    "zipCode": "48215",
    "coordinates": {
      "lat": 42.3866242,
      "lng": -82.9696641
    },
    "hours": "Call for hours",
    "phone": null,
    "description": "Food assistance location from OpenStreetMap community data. Website: https://www.cskdetroit.org/",
    "osm_id": "way/587317655",
    "id": "osm-42"
  },
  {
    "name": "Lynchburg Daily Bread",
    "type": "foodbank",
    "address": "Clay Street",
    "city": "Lynchburg",
    "state": "VA",
    "zipCode": "24504",
    "coordinates": {
      "lat": 37.4141713,
      "lng": -79.1460163
    },
    "hours": "Call for hours",
    "phone": null,
    "description": "Food assistance location from OpenStreetMap community data. Website: https://www.lynchburgdailybread.com",
    "osm_id": "way/627075492",
    "id": "osm-43"
  },
  {
    "name": "Food Assistance Location",
    "type": "foodbank",
    "address": "Veda Street",
    "city": "Redding",
    "state": "CA",
    "zipCode": "96001",
    "coordinates": {
      "lat": 40.5688861,
      "lng": -122.388917
    },
    "hours": "Call for hours",
    "phone": null,
    "description": "Food assistance location from OpenStreetMap community data.",
    "osm_id": "way/639936464",
    "id": "osm-44"
  },
  {
    "name": "Luke House",
    "type": "foodbank",
    "address": "South Ingersoll Street",
    "city": "Madison",
    "state": "WI",
    "zipCode": "53703",
    "coordinates": {
      "lat": 43.0822244,
      "lng": -89.3667358
    },
    "hours": "Call for hours",
    "phone": null,
    "description": "Food assistance location from OpenStreetMap community data.",
    "osm_id": "way/677658096",
    "id": "osm-45"
  },
  {
    "name": "The Corner Table, Inc.",
    "type": "foodbank",
    "address": "North Main Street",
    "city": "Newton",
    "state": "NC",
    "zipCode": "28658",
    "coordinates": {
      "lat": 35.664325,
      "lng": -81.2222638
    },
    "hours": "Call for hours",
    "phone": null,
    "description": "Food assistance location from OpenStreetMap community data.",
    "osm_id": "way/719059464",
    "id": "osm-46"
  },
  {
    "name": "Main Street Mission",
    "type": "foodbank",
    "address": "East 2nd Street",
    "city": "Russellville",
    "state": "AR",
    "zipCode": "72801",
    "coordinates": {
      "lat": 35.2762879,
      "lng": -93.1177854
    },
    "hours": "Call for hours",
    "phone": null,
    "description": "Food assistance location from OpenStreetMap community data.",
    "osm_id": "way/747150312",
    "id": "osm-47"
  },
  {
    "name": "Reidsville Soup Kitchen",
    "type": "foodbank",
    "address": "Arlington Street",
    "city": "Reidsville",
    "state": "NC",
    "zipCode": "27320",
    "coordinates": {
      "lat": 36.363148,
      "lng": -79.6666646
    },
    "hours": "Call for hours",
    "phone": null,
    "description": "Food assistance location from OpenStreetMap community data.",
    "osm_id": "way/813650038",
    "id": "osm-48"
  },
  {
    "name": "Social Apostolate of Savannah",
    "type": "foodbank",
    "address": "East Liberty Street",
    "city": "Savannah",
    "state": "GA",
    "zipCode": "31401",
    "coordinates": {
      "lat": 32.0735843,
      "lng": -81.0879922
    },
    "hours": "Call for hours",
    "phone": "+1 912-233-1877",
    "description": "Food assistance location from OpenStreetMap community data. Website: https://socialapostolate.org/",
    "osm_id": "way/949856236",
    "id": "osm-49"
  },
  {
    "name": "St. Philip's UMC",
    "type": "foodbank",
    "address": "East Tioga Street",
    "city": "Philadelphia",
    "state": "PA",
    "zipCode": "19134",
    "coordinates": {
      "lat": 40.0013379,
      "lng": -75.1156946
    },
    "hours": "We 11:30-13:00 \"Soup kitchen\"",
    "phone": "+1 215-634-5222",
    "description": "Food assistance location from OpenStreetMap community data.",
    "osm_id": "way/1201748608",
    "id": "osm-50"
  }
]